{
  "total": 165,
  "type_stats": {
    "不可移动文物": 80,
    "非遗项目": 36,
    "文化景观": 19,
    "圩市街区": 18,
    "历史文化名村": 12
  },
  "town_stats": {
    "nan": 80,
    "西樵镇": 26,
    "九江镇": 15,
    "丹灶镇": 11,
    "狮山镇": 3,
    "桂城街道": 3,
    "里水镇": 1,
    "松塘村": 1,
    "简村村": 1,
    "村头村": 1,
    "仙岗村": 1,
    "棋盘村": 1,
    "仙岗社区": 1,
    "百西社区": 1,
    "和平村": 1
  },
  "anchors": [
    {
      "name": "云泉仙馆",
      "anchor_type": "不可移动文物",
      "sub_type": "古建筑",
      "era": "清乾隆丁酉年（1777）",
      "protection_level": "省级文物保护单位",
      "address": "西樵镇樵园居委会西樵山白云洞风景区白云峰西北麓",
      "town": "西樵镇",
      "lng": 112.96566,
      "lat": 22.932927,
      "id": "ANC_0001"
    },
    {
      "name": "绮亭陈公祠",
      "anchor_type": "不可移动文物",
      "sub_type": "古建筑",
      "era": "清光绪十三年（1887）",
      "protection_level": "省级文物保护单位",
      "address": "西樵镇简村村委会幼儿园东侧",
      "town": "nan",
      "lng": 112.95341,
      "lat": 22.945087,
      "id": "ANC_0002"
    },
    {
      "name": "象林塔",
      "anchor_type": "不可移动文物",
      "sub_type": "古建筑",
      "era": "清康熙五年（1666年）",
      "protection_level": "省级文物保护单位",
      "address": "西樵镇樵园居委会西樵山白云洞风景区",
      "town": "nan",
      "lng": 112.963822,
      "lat": 22.933414,
      "id": "ANC_0003"
    },
    {
      "name": "西樵山采石场遗址",
      "anchor_type": "不可移动文物",
      "sub_type": "古遗址",
      "era": "明-清",
      "protection_level": "全国重点文物保护单位",
      "address": "西樵镇西樵山碧云村石燕岩",
      "town": "nan",
      "lng": 112.984834,
      "lat": 22.919916,
      "id": "ANC_0004"
    },
    {
      "name": "鱿鱼岗遗址",
      "anchor_type": "不可移动文物",
      "sub_type": "古遗址",
      "era": "新石器时代晚期-夏商",
      "protection_level": "省级文物保护单位",
      "address": "西樵镇百西村委会水边村鱿鱼岗",
      "town": "nan",
      "lng": 112.914946,
      "lat": 22.957935,
      "id": "ANC_0005"
    },
    {
      "name": "南蛇岗遗址",
      "anchor_type": "不可移动文物",
      "sub_type": "古遗址",
      "era": "新石器时代",
      "protection_level": "省级文物保护单位",
      "address": "西樵镇山根村委会樟坑村蚺蛇岗东南坡",
      "town": "nan",
      "lng": 112.995224,
      "lat": 22.921764,
      "id": "ANC_0006"
    },
    {
      "name": "富贤遗址",
      "anchor_type": "不可移动文物",
      "sub_type": "古遗址",
      "era": "新石器时代",
      "protection_level": "省级文物保护单位",
      "address": "西樵镇显岗村委会富贤村后平面岗、石沙围",
      "town": "nan",
      "lng": 112.99099,
      "lat": 22.914314,
      "id": "ANC_0007"
    },
    {
      "name": "佛子庙镇头遗址",
      "anchor_type": "不可移动文物",
      "sub_type": "古遗址",
      "era": "新石器时代",
      "protection_level": "省级文物保护单位",
      "address": "西樵镇儒溪村委会江边村环山公路佛子庙与镇头",
      "town": "nan",
      "lng": 112.961564,
      "lat": 22.912037,
      "id": "ANC_0008"
    },
    {
      "name": "火石迳遗址",
      "anchor_type": "不可移动文物",
      "sub_type": "古遗址",
      "era": "新石器时代",
      "protection_level": "省级文物保护单位",
      "address": "西樵镇山根村委会莘村村火石岗",
      "town": "nan",
      "lng": 112.997791,
      "lat": 22.934179,
      "id": "ANC_0009"
    },
    {
      "name": "锦岩遗址",
      "anchor_type": "不可移动文物",
      "sub_type": "古遗址",
      "era": "新石器时代",
      "protection_level": "省级文物保护单位",
      "address": "西樵镇西樵山云路村锦岩",
      "town": "nan",
      "lng": 112.972411,
      "lat": 22.921564,
      "id": "ANC_0010"
    },
    {
      "name": "四峰书院遗址",
      "anchor_type": "不可移动文物",
      "sub_type": "古遗址",
      "era": "明嘉靖癸未年（1523）",
      "protection_level": "省级文物保护单位",
      "address": "西樵镇西樵山寺边村",
      "town": "nan",
      "lng": 112.973856,
      "lat": 22.91818,
      "id": "ANC_0011"
    },
    {
      "name": "霍韬夫人墓",
      "anchor_type": "不可移动文物",
      "sub_type": "古墓葬",
      "era": "明",
      "protection_level": "省级文物保护单位",
      "address": "西樵镇西樵山寺边村",
      "town": "nan",
      "lng": 112.973859,
      "lat": 22.918362,
      "id": "ANC_0012"
    },
    {
      "name": "宝峰胜处摩崖石刻",
      "anchor_type": "不可移动文物",
      "sub_type": "石窟寺及石刻",
      "era": "明",
      "protection_level": "省级文物保护单位",
      "address": "西樵镇西樵山寺边村西南侧",
      "town": "nan",
      "lng": 112.980933,
      "lat": 22.929502,
      "id": "ANC_0013"
    },
    {
      "name": "奎光楼",
      "anchor_type": "不可移动文物",
      "sub_type": "古建筑",
      "era": "清乾隆四十二年（1777）",
      "protection_level": "市级文物保护单位",
      "address": "西樵镇樵园居委会西樵山白云洞风景区",
      "town": "nan",
      "lng": 112.964276,
      "lat": 22.933947,
      "id": "ANC_0014"
    },
    {
      "name": "白云古寺",
      "anchor_type": "不可移动文物",
      "sub_type": "古建筑",
      "era": "清乾隆四十九年（1784）",
      "protection_level": "市级文物保护单位",
      "address": "西樵镇樵园居委会西樵山白云洞风景区",
      "town": "nan",
      "lng": 112.964364,
      "lat": 22.933846,
      "id": "ANC_0015"
    },
    {
      "name": "字祖庙",
      "anchor_type": "不可移动文物",
      "sub_type": "古建筑",
      "era": "清乾隆四十二年（1777）",
      "protection_level": "市级文物保护单位",
      "address": "西樵镇樵园居委会西樵山白云洞风景区",
      "town": "nan",
      "lng": 112.964474,
      "lat": 22.933739,
      "id": "ANC_0016"
    },
    {
      "name": "龙母庙",
      "anchor_type": "不可移动文物",
      "sub_type": "近现代重要史迹及代表性建筑",
      "era": "中华民国二十七年（1938）",
      "protection_level": "市级文物保护单位",
      "address": "西樵镇樵园居委会西樵山蟠龙洞内",
      "town": "nan",
      "lng": 112.973519,
      "lat": 22.939989,
      "id": "ANC_0017"
    },
    {
      "name": "傅氏宗祠",
      "anchor_type": "不可移动文物",
      "sub_type": "近现代重要史迹及代表性建筑",
      "era": "中华民国二十一年（1932）",
      "protection_level": "市级文物保护单位",
      "address": "西樵镇西樵山碧云村",
      "town": "nan",
      "lng": 112.981742,
      "lat": 22.925328,
      "id": "ANC_0018"
    },
    {
      "name": "傅氏山庄南门",
      "anchor_type": "不可移动文物",
      "sub_type": "近现代重要史迹及代表性建筑",
      "era": "中华民国二十一年（1932）",
      "protection_level": "市级文物保护单位",
      "address": "西樵镇西樵山碧云村",
      "town": "nan",
      "lng": 112.98177,
      "lat": 22.924819,
      "id": "ANC_0019"
    },
    {
      "name": "敦义崇礼碉楼",
      "anchor_type": "不可移动文物",
      "sub_type": "近现代重要史迹及代表性建筑",
      "era": "中华民国二十三年(1934年)",
      "protection_level": "市级文物保护单位",
      "address": "西樵镇西樵山碧云村55号侧",
      "town": "nan",
      "lng": 112.981371,
      "lat": 22.928312,
      "id": "ANC_0020"
    },
    {
      "name": "傅老榕旧居",
      "anchor_type": "不可移动文物",
      "sub_type": "近现代重要史迹及代表性建筑",
      "era": "中华民国21年（1932）",
      "protection_level": "市级文物保护单位",
      "address": "西樵镇西樵山碧云村55号",
      "town": "nan",
      "lng": 112.981371,
      "lat": 22.928312,
      "id": "ANC_0021"
    },
    {
      "name": "松塘世大夫家庙",
      "anchor_type": "不可移动文物",
      "sub_type": "古建筑",
      "era": "清",
      "protection_level": "市级文物保护单位",
      "address": "西樵镇上金瓯村委会松塘村文昌圩22号侧",
      "town": "nan",
      "lng": 112.907173,
      "lat": 22.992616,
      "id": "ANC_0022"
    },
    {
      "name": "松塘东山祖祠",
      "anchor_type": "不可移动文物",
      "sub_type": "古建筑",
      "era": "清",
      "protection_level": "市级文物保护单位",
      "address": "西樵镇上金瓯村委会松塘村文昌圩22号侧",
      "town": "nan",
      "lng": 112.907173,
      "lat": 22.992617,
      "id": "ANC_0023"
    },
    {
      "name": "松塘汇川家塾",
      "anchor_type": "不可移动文物",
      "sub_type": "古建筑",
      "era": "清",
      "protection_level": "市级文物保护单位",
      "address": "西樵镇上金瓯村委会松塘村桂香坊13号",
      "town": "nan",
      "lng": 112.913162,
      "lat": 22.986077,
      "id": "ANC_0024"
    },
    {
      "name": "松塘见五大夫祠",
      "anchor_type": "不可移动文物",
      "sub_type": "古建筑",
      "era": "清光绪七年（1881）",
      "protection_level": "市级文物保护单位",
      "address": "西樵镇上金瓯村委会松塘村桂香坊",
      "town": "nan",
      "lng": 112.913098,
      "lat": 22.98617,
      "id": "ANC_0025"
    },
    {
      "name": "松塘六世祖祠",
      "anchor_type": "不可移动文物",
      "sub_type": "古建筑",
      "era": "清",
      "protection_level": "市级文物保护单位",
      "address": "西樵镇上金瓯村委会松塘村桂香坊",
      "town": "nan",
      "lng": 112.912902,
      "lat": 22.986592,
      "id": "ANC_0026"
    },
    {
      "name": "松塘区氏宗祠",
      "anchor_type": "不可移动文物",
      "sub_type": "古建筑",
      "era": "清宣统二年（1909）",
      "protection_level": "市级文物保护单位",
      "address": "西樵镇上金瓯村委会松塘村桂香坊",
      "town": "nan",
      "lng": 112.912902,
      "lat": 22.986593,
      "id": "ANC_0027"
    },
    {
      "name": "松塘司马第",
      "anchor_type": "不可移动文物",
      "sub_type": "古建筑",
      "era": "晚清",
      "protection_level": "市级文物保护单位",
      "address": "西樵镇上金瓯村委会松塘村桂香坊126号",
      "town": "nan",
      "lng": 112.912902,
      "lat": 22.986594,
      "id": "ANC_0028"
    },
    {
      "name": "松塘甘井",
      "anchor_type": "不可移动文物",
      "sub_type": "古建筑",
      "era": "宋",
      "protection_level": "市级文物保护单位",
      "address": "西樵镇上金瓯村委会松塘村桂阳坊42号侧",
      "town": "nan",
      "lng": 112.910779,
      "lat": 22.986061,
      "id": "ANC_0029"
    },
    {
      "name": "松塘塘西六世祖祠",
      "anchor_type": "不可移动文物",
      "sub_type": "古建筑",
      "era": "清光绪乙未年（1895）",
      "protection_level": "市级文物保护单位",
      "address": "西樵镇上金瓯村委会松塘村塘西坊61号侧",
      "town": "nan",
      "lng": 112.909578,
      "lat": 22.986672,
      "id": "ANC_0030"
    },
    {
      "name": "松塘培元书舍",
      "anchor_type": "不可移动文物",
      "sub_type": "古建筑",
      "era": "清",
      "protection_level": "市级文物保护单位",
      "address": "西樵镇上金瓯村委会松塘村忠心坊4号B侧",
      "town": "nan",
      "lng": 112.910275,
      "lat": 22.985121,
      "id": "ANC_0031"
    },
    {
      "name": "松塘太史第",
      "anchor_type": "不可移动文物",
      "sub_type": "古建筑",
      "era": "清",
      "protection_level": "市级文物保护单位",
      "address": "西樵镇上金瓯村委会松塘村华宁坊59号侧",
      "town": "nan",
      "lng": 112.912236,
      "lat": 22.985299,
      "id": "ANC_0032"
    },
    {
      "name": "松塘翘秀园",
      "anchor_type": "不可移动文物",
      "sub_type": "古建筑",
      "era": "清",
      "protection_level": "市级文物保护单位",
      "address": "西樵镇上金瓯村委会松塘村华宁坊1号",
      "town": "nan",
      "lng": 112.910982,
      "lat": 22.985446,
      "id": "ANC_0033"
    },
    {
      "name": "区梦觉故居",
      "anchor_type": "不可移动文物",
      "sub_type": "近现代重要史迹及代表性建筑",
      "era": "1906年",
      "protection_level": "市级文物保护单位",
      "address": "西樵镇上金瓯村委会松塘村华宁坊69号",
      "town": "nan",
      "lng": 112.912594,
      "lat": 22.985217,
      "id": "ANC_0034"
    },
    {
      "name": "西樵山紫姑井",
      "anchor_type": "不可移动文物",
      "sub_type": "古建筑",
      "era": "唐",
      "protection_level": "市级文物保护单位",
      "address": "西樵镇西樵山寺边村九龙岩景区",
      "town": "nan",
      "lng": 112.976037,
      "lat": 22.91698,
      "id": "ANC_0035"
    },
    {
      "name": "西樵山仙姑亭",
      "anchor_type": "不可移动文物",
      "sub_type": "古建筑",
      "era": "清光绪戊戌年（1898）",
      "protection_level": "市级文物保护单位",
      "address": "西樵镇西樵山寺边村九龙岩景区",
      "town": "nan",
      "lng": -1.7976931348623157e+308,
      "lat": -1.7976931348623157e+308,
      "id": "ANC_0036"
    },
    {
      "name": "西樵山蟹眼泉",
      "anchor_type": "不可移动文物",
      "sub_type": "古建筑",
      "era": "清",
      "protection_level": "市级文物保护单位",
      "address": "西樵镇西樵山碧云村翠岩风景区",
      "town": "nan",
      "lng": 112.980036,
      "lat": 22.931352,
      "id": "ANC_0037"
    },
    {
      "name": "西樵山无叶井",
      "anchor_type": "不可移动文物",
      "sub_type": "古建筑",
      "era": "明清",
      "protection_level": "市级文物保护单位",
      "address": "西樵镇西樵山碧云村村口",
      "town": "nan",
      "lng": 112.980731,
      "lat": 22.928262,
      "id": "ANC_0038"
    },
    {
      "name": "西樵山百步云梯",
      "anchor_type": "不可移动文物",
      "sub_type": "古建筑",
      "era": "明正德十二年（1517）",
      "protection_level": "市级文物保护单位",
      "address": "西樵镇西樵山石牌村金钗峰北麓",
      "town": "nan",
      "lng": 112.981144,
      "lat": 22.937175,
      "id": "ANC_0039"
    },
    {
      "name": "禄舟万寿堂",
      "anchor_type": "不可移动文物",
      "sub_type": "古建筑",
      "era": "清乾隆四十九年（1784）",
      "protection_level": "市级文物保护单位",
      "address": "西樵镇岭西村委会禄舟村2O号",
      "town": "nan",
      "lng": 112.948687,
      "lat": 22.922072,
      "id": "ANC_0040"
    },
    {
      "name": "百西潘氏大宗祠",
      "anchor_type": "不可移动文物",
      "sub_type": "古建筑",
      "era": "清乾隆二十六年（1762）",
      "protection_level": "市级文物保护单位",
      "address": "西樵镇百西村委会村头村百西幼儿园侧",
      "town": "nan",
      "lng": 112.920346,
      "lat": 22.962484,
      "id": "ANC_0041"
    },
    {
      "name": "湖山胜迹门楼",
      "anchor_type": "不可移动文物",
      "sub_type": "古建筑",
      "era": "清咸丰三年（1853）",
      "protection_level": "市级文物保护单位",
      "address": "西樵镇樵园居委会西樵山白云洞风景区",
      "town": "nan",
      "lng": 112.965363,
      "lat": 22.933235,
      "id": "ANC_0042"
    },
    {
      "name": "小云亭",
      "anchor_type": "不可移动文物",
      "sub_type": "古建筑",
      "era": "清咸丰八年（1858）",
      "protection_level": "市级文物保护单位",
      "address": "西樵镇樵园居委会西樵山白云洞风景区",
      "town": "nan",
      "lng": 112.966142,
      "lat": 22.932936,
      "id": "ANC_0043"
    },
    {
      "name": "光分亭",
      "anchor_type": "不可移动文物",
      "sub_type": "古建筑",
      "era": "清道光二十八年（1848）",
      "protection_level": "市级文物保护单位",
      "address": "西樵镇樵园居委会西樵山白云洞风景区",
      "town": "nan",
      "lng": 112.962325,
      "lat": 22.933011,
      "id": "ANC_0044"
    },
    {
      "name": "枕流亭",
      "anchor_type": "不可移动文物",
      "sub_type": "古建筑",
      "era": "清乾隆乙酉年（1789）",
      "protection_level": "市级文物保护单位",
      "address": "西樵镇樵园居委会西樵山白云洞风景区应潮湖旁边",
      "town": "nan",
      "lng": 112.964888,
      "lat": 22.932102,
      "id": "ANC_0045"
    },
    {
      "name": "吉水窦",
      "anchor_type": "不可移动文物",
      "sub_type": "古建筑",
      "era": "清光绪甲午年（1894）",
      "protection_level": "市级文物保护单位",
      "address": "西樵镇西樵村委会吉水大道牌坊前",
      "town": "nan",
      "lng": 112.96847,
      "lat": 22.942825,
      "id": "ANC_0046"
    },
    {
      "name": "第弌洞天牌坊",
      "anchor_type": "不可移动文物",
      "sub_type": "古建筑",
      "era": "清乾隆年间（1736-1796）",
      "protection_level": "市级文物保护单位",
      "address": "西樵镇樵园居委会西樵山白云洞风景区。",
      "town": "nan",
      "lng": 112.964717,
      "lat": 22.933533,
      "id": "ANC_0047"
    },
    {
      "name": "铁屎墩冶炼遗址",
      "anchor_type": "不可移动文物",
      "sub_type": "古遗址",
      "era": "清",
      "protection_level": "市级文物保护单位",
      "address": "西樵镇百西村委会大地村",
      "town": "nan",
      "lng": 112.922117,
      "lat": 22.955526,
      "id": "ANC_0048"
    },
    {
      "name": "李子长墓",
      "anchor_type": "不可移动文物",
      "sub_type": "古墓葬",
      "era": "明嘉靖五年（1526）",
      "protection_level": "市级文物保护单位",
      "address": "西樵镇西樵山云路村云路峰下",
      "town": "nan",
      "lng": 112.972752,
      "lat": 22.922157,
      "id": "ANC_0049"
    },
    {
      "name": "大科峰摩崖石刻",
      "anchor_type": "不可移动文物",
      "sub_type": "石窟寺及石刻",
      "era": "清",
      "protection_level": "市级文物保护单位",
      "address": "西樵镇西樵山大科村大科峰西南麓",
      "town": "nan",
      "lng": 112.977414,
      "lat": 22.92249,
      "id": "ANC_0050"
    },
    {
      "name": "玉廪峰摩崖石刻",
      "anchor_type": "不可移动文物",
      "sub_type": "石窟寺及石刻",
      "era": "明嘉靖丙午年（1546）",
      "protection_level": "市级文物保护单位",
      "address": "西樵镇儒溪村江边村民小组玉廪峰巅",
      "town": "nan",
      "lng": 112.960983,
      "lat": 22.920861,
      "id": "ANC_0051"
    },
    {
      "name": "翠岩摩崖石刻",
      "anchor_type": "不可移动文物",
      "sub_type": "石窟寺及石刻",
      "era": "清",
      "protection_level": "市级文物保护单位",
      "address": "西樵镇西樵山碧云村翠岩景区",
      "town": "nan",
      "lng": 112.980933,
      "lat": 22.929502,
      "id": "ANC_0052"
    },
    {
      "name": "白云洞摩崖石刻",
      "anchor_type": "不可移动文物",
      "sub_type": "石窟寺及石刻",
      "era": "明—中华人民共和国",
      "protection_level": "市级文物保护单位",
      "address": "西樵镇樵园居委会西樵山白云洞风景区。",
      "town": "nan",
      "lng": 112.964912,
      "lat": 22.933621,
      "id": "ANC_0053"
    },
    {
      "name": "九龙岩摩崖石刻",
      "anchor_type": "不可移动文物",
      "sub_type": "石窟寺及石刻",
      "era": "明正德丁丑（1517）",
      "protection_level": "市级文物保护单位",
      "address": "西樵镇西樵山寺边村九龙岩景区",
      "town": "nan",
      "lng": 112.977822,
      "lat": 22.916936,
      "id": "ANC_0054"
    },
    {
      "name": "冯夏威墓",
      "anchor_type": "不可移动文物",
      "sub_type": "近现代重要史迹及代表性建筑",
      "era": "1905年",
      "protection_level": "市级文物保护单位",
      "address": "西樵镇樵园居委会蟠龙洞洞口",
      "town": "nan",
      "lng": 112.975303,
      "lat": 22.940864,
      "id": "ANC_0055"
    },
    {
      "name": "西樵山抗日阵亡将士暨死难同胞纪念碑",
      "anchor_type": "不可移动文物",
      "sub_type": "近现代重要史迹及代表性建筑",
      "era": "1947年",
      "protection_level": "市级文物保护单位",
      "address": "西樵镇东碧社区碧玉洞内",
      "town": "nan",
      "lng": 112.981405,
      "lat": 22.934668,
      "id": "ANC_0056"
    },
    {
      "name": "康有为故居",
      "anchor_type": "不可移动文物",
      "sub_type": "近现代重要史迹及代表性建筑",
      "era": "1858－1927",
      "protection_level": "全国重点文物保护单位",
      "address": "丹灶镇银河村委会苏村敦仁里",
      "town": "丹灶镇",
      "lng": 112.905461,
      "lat": 23.021024,
      "id": "ANC_0057"
    },
    {
      "name": "方献夫墓",
      "anchor_type": "不可移动文物",
      "sub_type": "古墓葬",
      "era": "明",
      "protection_level": "省级文物保护单位",
      "address": "丹灶镇良登村委会孔边村孔边岗",
      "town": "nan",
      "lng": 112.915719,
      "lat": 23.027375,
      "id": "ANC_0058"
    },
    {
      "name": "仙迹丹泉",
      "anchor_type": "不可移动文物",
      "sub_type": "古建筑",
      "era": "晋",
      "protection_level": "省级文物保护单位",
      "address": "丹灶镇仙岗村委会仙岗村流水井二巷前",
      "town": "nan",
      "lng": 112.886577,
      "lat": 23.039443,
      "id": "ANC_0059"
    },
    {
      "name": "南沙陈氏宗祠",
      "anchor_type": "不可移动文物",
      "sub_type": "古建筑",
      "era": "清乾隆三十九年（1774）",
      "protection_level": "市级文物保护单位",
      "address": "丹灶镇南沙村委会新村街十四巷1号",
      "town": "nan",
      "lng": 112.905606,
      "lat": 23.131102,
      "id": "ANC_0060"
    },
    {
      "name": "沙水翰林步头",
      "anchor_type": "不可移动文物",
      "sub_type": "古建筑",
      "era": "清",
      "protection_level": "市级文物保护单位",
      "address": "丹灶镇劳边村委会沙水村西街坊南乔公前",
      "town": "nan",
      "lng": 112.928208,
      "lat": 23.057435,
      "id": "ANC_0061"
    },
    {
      "name": "阴骘井",
      "anchor_type": "不可移动文物",
      "sub_type": "古建筑",
      "era": "宋",
      "protection_level": "市级文物保护单位",
      "address": "丹灶镇仙岗村委会苏坑村村尾",
      "town": "nan",
      "lng": 112.886543,
      "lat": 23.040686,
      "id": "ANC_0062"
    },
    {
      "name": "贞烈牌坊",
      "anchor_type": "不可移动文物",
      "sub_type": "古建筑",
      "era": "清康熙年间（1662-1723）",
      "protection_level": "市级文物保护单位",
      "address": "丹灶镇仙岗村委会苏坑村村口",
      "town": "nan",
      "lng": 112.883872,
      "lat": 23.04674,
      "id": "ANC_0063"
    },
    {
      "name": "东联吴氏大宗祠",
      "anchor_type": "不可移动文物",
      "sub_type": "古建筑",
      "era": "清",
      "protection_level": "市级文物保护单位",
      "address": "丹灶镇东联村委会水口村村前街西二十巷1号侧",
      "town": "nan",
      "lng": 112.945996,
      "lat": 23.089986,
      "id": "ANC_0064"
    },
    {
      "name": "恒德徐公祠",
      "anchor_type": "不可移动文物",
      "sub_type": "古建筑",
      "era": "清光绪壬午年（1882）",
      "protection_level": "市级文物保护单位",
      "address": "丹灶镇西联村委会五甲村五巷1号",
      "town": "nan",
      "lng": 112.931257,
      "lat": 23.089846,
      "id": "ANC_0065"
    },
    {
      "name": "通心岗遗址",
      "anchor_type": "不可移动文物",
      "sub_type": "古遗址",
      "era": "新石器时代",
      "protection_level": "市级文物保护单位",
      "address": "丹灶镇良登村委会良登村",
      "town": "nan",
      "lng": 112.915658,
      "lat": 23.018911,
      "id": "ANC_0066"
    },
    {
      "name": "方道隆墓",
      "anchor_type": "不可移动文物",
      "sub_type": "古墓葬",
      "era": "元",
      "protection_level": "市级文物保护单位",
      "address": "丹灶镇良登村委会孔边村孔边岗",
      "town": "nan",
      "lng": 112.921503,
      "lat": 23.025526,
      "id": "ANC_0067"
    },
    {
      "name": "崔氏大宗祠",
      "anchor_type": "不可移动文物",
      "sub_type": "古建筑",
      "era": "明嘉靖四十四年（1565）",
      "protection_level": "省级文物保护单位",
      "address": "九江镇万安社区民康路3号对面",
      "town": "九江镇",
      "lng": 113.029806,
      "lat": 22.91457,
      "id": "ANC_0068"
    },
    {
      "name": "九江吴家大院",
      "anchor_type": "不可移动文物",
      "sub_type": "近现代重要史迹及代表性建筑",
      "era": "中华民国",
      "protection_level": "省级文物保护单位",
      "address": "九江镇儒林社区人民路九曲涌旁",
      "town": "nan",
      "lng": 113.017758,
      "lat": 22.833102,
      "id": "ANC_0069"
    },
    {
      "name": "良二千石牌坊",
      "anchor_type": "不可移动文物",
      "sub_type": "古建筑",
      "era": "明万历二十六年（1598）",
      "protection_level": "省级文物保护单位",
      "address": "九江镇下西村委会大稔村北边",
      "town": "nan",
      "lng": 113.003731,
      "lat": 22.837996,
      "id": "ANC_0070"
    },
    {
      "name": "慈悲宫牌坊",
      "anchor_type": "不可移动文物",
      "sub_type": "古建筑",
      "era": "明万历年间",
      "protection_level": "省级文物保护单位",
      "address": "九江镇下西村委会翘南村新龙路探花公园北侧",
      "town": "nan",
      "lng": 113.003815,
      "lat": 22.845895,
      "id": "ANC_0071"
    },
    {
      "name": "烟桥何氏大宗祠",
      "anchor_type": "不可移动文物",
      "sub_type": "古建筑",
      "era": "清嘉庆十九年（1814）",
      "protection_level": "省级文物保护单位",
      "address": "九江镇烟南村委会烟桥村西边",
      "town": "nan",
      "lng": 112.959574,
      "lat": 22.872088,
      "id": "ANC_0072"
    },
    {
      "name": "上东岑局楼",
      "anchor_type": "不可移动文物",
      "sub_type": "近现代重要史迹及代表性建筑",
      "era": "中华民国二十一年（1932）",
      "protection_level": "市级文物保护单位",
      "address": "九江镇上东村委会上东沙村红旗421-422号",
      "town": "nan",
      "lng": 113.03,
      "lat": 22.83,
      "id": "ANC_0073"
    },
    {
      "name": "探花桥",
      "anchor_type": "不可移动文物",
      "sub_type": "古建筑",
      "era": "明-清",
      "protection_level": "市级文物保护单位",
      "address": "九江镇下西村委会翘南村新龙路探花公园北侧",
      "town": "nan",
      "lng": 113.0,
      "lat": 22.85,
      "id": "ANC_0074"
    },
    {
      "name": "魁星塔",
      "anchor_type": "不可移动文物",
      "sub_type": "古建筑",
      "era": "清嘉庆五年（1800）",
      "protection_level": "市级文物保护单位",
      "address": "九江镇下北村委会铁滘村东南方",
      "town": "nan",
      "lng": 113.023983,
      "lat": 22.841656,
      "id": "ANC_0075"
    },
    {
      "name": "三元桥",
      "anchor_type": "不可移动文物",
      "sub_type": "古建筑",
      "era": "清道光年间（1821-1851）",
      "protection_level": "市级文物保护单位",
      "address": "九江镇儒林社区船栏街侧",
      "town": "nan",
      "lng": 113.017604,
      "lat": 22.829592,
      "id": "ANC_0076"
    },
    {
      "name": "破排角遗址",
      "anchor_type": "不可移动文物",
      "sub_type": "古遗址",
      "era": "南宋",
      "protection_level": "市级文物保护单位",
      "address": "九江镇沙口居委会文昌路沙口社区卫生站对面",
      "town": "nan",
      "lng": 113.037232,
      "lat": 22.814643,
      "id": "ANC_0077"
    },
    {
      "name": "冯氏家族墓",
      "anchor_type": "不可移动文物",
      "sub_type": "古墓葬",
      "era": "宋",
      "protection_level": "市级文物保护单位",
      "address": "九江镇水南村委会迎安大道东边",
      "town": "nan",
      "lng": 113.030182,
      "lat": 22.910187,
      "id": "ANC_0078"
    },
    {
      "name": "朱子襄墓",
      "anchor_type": "不可移动文物",
      "sub_type": "古墓葬",
      "era": "清光绪八年（1882）",
      "protection_level": "市级文物保护单位",
      "address": "九江镇下西村委会太平村龟岗西南麓",
      "town": "nan",
      "lng": 113.005299,
      "lat": 22.836108,
      "id": "ANC_0079"
    },
    {
      "name": "李卓峰墓",
      "anchor_type": "不可移动文物",
      "sub_type": "近现代重要史迹及代表性建筑",
      "era": "1926年",
      "protection_level": "市级文物保护单位",
      "address": "九江镇南方村委会忠良岗",
      "town": "nan",
      "lng": 113.017187,
      "lat": 22.825344,
      "id": "ANC_0080"
    },
    {
      "name": "九江双蒸酒酿制技艺",
      "anchor_type": "非遗项目",
      "sub_type": "传统技艺（VⅢ）",
      "era": "",
      "protection_level": "省级",
      "address": "",
      "town": "九江镇",
      "lng": 113.033846,
      "lat": 22.819022,
      "id": "ANC_0081"
    },
    {
      "name": "金箔锻造技艺",
      "anchor_type": "非遗项目",
      "sub_type": "传统技艺（VⅢ）",
      "era": "",
      "protection_level": "省级",
      "address": "",
      "town": "狮山镇",
      "lng": 0,
      "lat": 0,
      "id": "ANC_0082"
    },
    {
      "name": "九江煎堆制作技艺",
      "anchor_type": "非遗项目",
      "sub_type": "传统技艺（VⅢ）",
      "era": "",
      "protection_level": "省级",
      "address": "",
      "town": "九江镇",
      "lng": 113.003673,
      "lat": 22.8578,
      "id": "ANC_0083"
    },
    {
      "name": "西樵传统缫丝技艺",
      "anchor_type": "非遗项目",
      "sub_type": "传统技艺（VⅢ）",
      "era": "",
      "protection_level": "市级",
      "address": "",
      "town": "西樵镇",
      "lng": 112.990416,
      "lat": 22.946452,
      "id": "ANC_0084"
    },
    {
      "name": "南海竹编",
      "anchor_type": "非遗项目",
      "sub_type": "传统技艺（VⅢ）",
      "era": "",
      "protection_level": "市级",
      "address": "",
      "town": "西樵镇",
      "lng": 0,
      "lat": 0,
      "id": "ANC_0085"
    },
    {
      "name": "西樵大饼制作技艺",
      "anchor_type": "非遗项目",
      "sub_type": "传统技艺（VⅢ）",
      "era": "",
      "protection_level": "市级",
      "address": "",
      "town": "西樵镇",
      "lng": 112.993947,
      "lat": 22.961339,
      "id": "ANC_0086"
    },
    {
      "name": "香云纱（坯纱）织造技艺",
      "anchor_type": "非遗项目",
      "sub_type": "传统技艺（VⅢ）",
      "era": "",
      "protection_level": "市级",
      "address": "",
      "town": "西樵镇",
      "lng": 112.937983,
      "lat": 22.975301,
      "id": "ANC_0087"
    },
    {
      "name": "广式家具制作技艺",
      "anchor_type": "非遗项目",
      "sub_type": "传统技艺（VⅢ）",
      "era": "",
      "protection_level": "市级",
      "address": "",
      "town": "桂城街道",
      "lng": 113.181984,
      "lat": 23.057445,
      "id": "ANC_0088"
    },
    {
      "name": "平洲传统玉器\n制作技艺",
      "anchor_type": "非遗项目",
      "sub_type": "传统技艺（Ⅷ）",
      "era": "",
      "protection_level": "市级",
      "address": "",
      "town": "桂城街道",
      "lng": 113.215855,
      "lat": 23.029326,
      "id": "ANC_0089"
    },
    {
      "name": "唢呐制作技艺",
      "anchor_type": "非遗项目",
      "sub_type": "传统技艺（Ⅷ）",
      "era": "",
      "protection_level": "市级",
      "address": "",
      "town": "桂城街道",
      "lng": 113.158515,
      "lat": 23.01519,
      "id": "ANC_0090"
    },
    {
      "name": "佛鹤狮头制作",
      "anchor_type": "非遗项目",
      "sub_type": "传统技艺（VⅢ）",
      "era": "",
      "protection_level": "区级",
      "address": "",
      "town": "狮山镇",
      "lng": 113.089205,
      "lat": 23.149394,
      "id": "ANC_0091"
    },
    {
      "name": "里水毛巾织造技艺",
      "anchor_type": "非遗项目",
      "sub_type": "传统技艺（VⅢ）",
      "era": "",
      "protection_level": "区级",
      "address": "",
      "town": "里水镇",
      "lng": 113.171671,
      "lat": 23.203113,
      "id": "ANC_0092"
    },
    {
      "name": "南海醒狮（采青技艺）",
      "anchor_type": "非遗项目",
      "sub_type": "传统技艺（VⅢ）",
      "era": "",
      "protection_level": "区级",
      "address": "",
      "town": "西樵镇",
      "lng": 112.961064,
      "lat": 22.964097,
      "id": "ANC_0093"
    },
    {
      "name": "花灯制作技艺",
      "anchor_type": "非遗项目",
      "sub_type": "传统技艺（VⅢ）",
      "era": "",
      "protection_level": "区级",
      "address": "",
      "town": "狮山镇",
      "lng": 0,
      "lat": 0,
      "id": "ANC_0094"
    },
    {
      "name": "南海广式旺阁酱油酿造技艺",
      "anchor_type": "非遗项目",
      "sub_type": "传统技艺（VⅢ）",
      "era": "",
      "protection_level": "区级",
      "address": "",
      "town": "西樵镇",
      "lng": 112.982482,
      "lat": 22.973426,
      "id": "ANC_0095"
    },
    {
      "name": "庙会（大仙诞庙会）",
      "anchor_type": "非遗项目",
      "sub_type": "民俗（Х）",
      "era": "",
      "protection_level": "省级",
      "address": "",
      "town": "西樵镇",
      "lng": 112.953358,
      "lat": 22.941378,
      "id": "ANC_0096"
    },
    {
      "name": "龙舟说唱（南海）",
      "anchor_type": "非遗项目",
      "sub_type": "传统音乐（Ⅱ）",
      "era": "",
      "protection_level": "市级",
      "address": "",
      "town": "丹灶镇",
      "lng": 112.913548,
      "lat": 23.046584,
      "id": "ANC_0097"
    },
    {
      "name": "烧番塔(松塘)",
      "anchor_type": "非遗项目",
      "sub_type": "民俗（Х）",
      "era": "",
      "protection_level": "市级",
      "address": "",
      "town": "西樵镇",
      "lng": 112.907069,
      "lat": 22.984568,
      "id": "ANC_0098"
    },
    {
      "name": "南海农谚",
      "anchor_type": "非遗项目",
      "sub_type": "民间文学（Ⅰ）",
      "era": "",
      "protection_level": "区级",
      "address": "",
      "town": "西樵镇",
      "lng": 112.97231,
      "lat": 22.91039,
      "id": "ANC_0099"
    },
    {
      "name": "西樵山传说",
      "anchor_type": "非遗项目",
      "sub_type": "民间文学（Ⅰ）",
      "era": "",
      "protection_level": "区级",
      "address": "",
      "town": "西樵镇",
      "lng": 112.953351,
      "lat": 22.940961,
      "id": "ANC_0100"
    },
    {
      "name": "简村北帝庙会",
      "anchor_type": "非遗项目",
      "sub_type": "民俗（Х）",
      "era": "",
      "protection_level": "区级",
      "address": "",
      "town": "西樵镇",
      "lng": 112.948192,
      "lat": 22.946524,
      "id": "ANC_0101"
    },
    {
      "name": "松塘村孔子诞",
      "anchor_type": "非遗项目",
      "sub_type": "民俗（Х）",
      "era": "",
      "protection_level": "区级",
      "address": "",
      "town": "西樵镇",
      "lng": 112.911801,
      "lat": 22.986783,
      "id": "ANC_0102"
    },
    {
      "name": "松塘村“出色”巡游",
      "anchor_type": "非遗项目",
      "sub_type": "民俗（Х）",
      "era": "",
      "protection_level": "区级",
      "address": "",
      "town": "西樵镇",
      "lng": 112.911944,
      "lat": 22.986497,
      "id": "ANC_0103"
    },
    {
      "name": "大头佛（民乐大头佛）",
      "anchor_type": "非遗项目",
      "sub_type": "传统舞蹈（Ⅲ）",
      "era": "",
      "protection_level": "区级",
      "address": "",
      "town": "西樵镇",
      "lng": 112.951552,
      "lat": 22.956278,
      "id": "ANC_0104"
    },
    {
      "name": "西樵白眉武术",
      "anchor_type": "非遗项目",
      "sub_type": "传统体育、游艺与杂技（Ⅵ）",
      "era": "",
      "protection_level": "区级",
      "address": "",
      "town": "西樵镇",
      "lng": 112.953125,
      "lat": 22.941151,
      "id": "ANC_0105"
    },
    {
      "name": "赤坎盲公话",
      "anchor_type": "非遗项目",
      "sub_type": "民俗（Х）",
      "era": "",
      "protection_level": "区级",
      "address": "",
      "town": "丹灶镇",
      "lng": 112.913406,
      "lat": 23.04706,
      "id": "ANC_0106"
    },
    {
      "name": "西联村神诞",
      "anchor_type": "非遗项目",
      "sub_type": "民俗（Х）",
      "era": "",
      "protection_level": "区级",
      "address": "",
      "town": "丹灶镇",
      "lng": 112.913858,
      "lat": 23.046798,
      "id": "ANC_0107"
    },
    {
      "name": "传统龙舟（丹灶扒龙舟）",
      "anchor_type": "非遗项目",
      "sub_type": "传统体育、游艺与杂技（Ⅵ）",
      "era": "",
      "protection_level": "区级",
      "address": "",
      "town": "丹灶镇",
      "lng": 112.914215,
      "lat": 23.047298,
      "id": "ANC_0108"
    },
    {
      "name": "丹灶葛洪炼丹传说",
      "anchor_type": "非遗项目",
      "sub_type": "民间文学（Ⅰ）",
      "era": "",
      "protection_level": "市级",
      "address": "",
      "town": "丹灶镇",
      "lng": 112.913715,
      "lat": 23.047679,
      "id": "ANC_0109"
    },
    {
      "name": "烧番塔(仙岗)",
      "anchor_type": "非遗项目",
      "sub_type": "民俗（Х）",
      "era": "",
      "protection_level": "市级",
      "address": "",
      "town": "丹灶镇",
      "lng": 112.913691,
      "lat": 23.04706,
      "id": "ANC_0110"
    },
    {
      "name": "大头佛",
      "anchor_type": "非遗项目",
      "sub_type": "传统舞蹈（Ⅲ）",
      "era": "",
      "protection_level": "市级",
      "address": "",
      "town": "九江镇",
      "lng": 113.015659,
      "lat": 22.835151,
      "id": "ANC_0111"
    },
    {
      "name": "赛龙舟（九江传统龙舟）",
      "anchor_type": "非遗项目",
      "sub_type": "传统体育、游艺与杂技（Ⅵ）",
      "era": "",
      "protection_level": "省级",
      "address": "",
      "town": "九江镇",
      "lng": 113.003444,
      "lat": 22.858157,
      "id": "ANC_0112"
    },
    {
      "name": "九江灯谜",
      "anchor_type": "非遗项目",
      "sub_type": "民间文学（Ⅰ）",
      "era": "",
      "protection_level": "市级",
      "address": "",
      "town": "九江镇",
      "lng": 112.981157,
      "lat": 22.836639,
      "id": "ANC_0113"
    },
    {
      "name": "九江传统鱼花技艺",
      "anchor_type": "非遗项目",
      "sub_type": "传统技艺（VⅢ）",
      "era": "",
      "protection_level": "市级",
      "address": "",
      "town": "九江镇",
      "lng": 113.003487,
      "lat": 22.858457,
      "id": "ANC_0114"
    },
    {
      "name": "周家拳",
      "anchor_type": "非遗项目",
      "sub_type": "传统体育、游艺与杂技（Ⅵ）",
      "era": "",
      "protection_level": "区级",
      "address": "",
      "town": "九江镇",
      "lng": 113.003487,
      "lat": 22.858457,
      "id": "ANC_0115"
    },
    {
      "name": "华岳心意六合八法拳",
      "anchor_type": "非遗项目",
      "sub_type": "传统体育、游艺与杂技（Ⅵ）",
      "era": "",
      "protection_level": "市级",
      "address": "",
      "town": "九江镇",
      "lng": 113.005783,
      "lat": 22.841679,
      "id": "ANC_0116"
    },
    {
      "name": "仙岗村古井(蟹泉仙井)",
      "anchor_type": "文化景观",
      "sub_type": "",
      "era": "",
      "protection_level": "",
      "address": "",
      "town": "丹灶镇",
      "lng": 112.89,
      "lat": 23.04,
      "id": "ANC_0117"
    },
    {
      "name": "西城圩市建筑群",
      "anchor_type": "文化景观",
      "sub_type": "",
      "era": "",
      "protection_level": "",
      "address": "",
      "town": "丹灶镇",
      "lng": 112.89,
      "lat": 23.03,
      "id": "ANC_0118"
    },
    {
      "name": "大岗民居",
      "anchor_type": "文化景观",
      "sub_type": "",
      "era": "",
      "protection_level": "",
      "address": "",
      "town": "丹灶镇",
      "lng": 0,
      "lat": 0,
      "id": "ANC_0119"
    },
    {
      "name": "苏州银河",
      "anchor_type": "文化景观",
      "sub_type": "",
      "era": "",
      "protection_level": "",
      "address": "",
      "town": "丹灶镇",
      "lng": 112.91,
      "lat": 23.01,
      "id": "ANC_0120"
    },
    {
      "name": "塱心码头",
      "anchor_type": "文化景观",
      "sub_type": "",
      "era": "",
      "protection_level": "",
      "address": "",
      "town": "西樵镇",
      "lng": 112.92,
      "lat": 22.99,
      "id": "ANC_0121"
    },
    {
      "name": "松塘月池及古祠堂群",
      "anchor_type": "文化景观",
      "sub_type": "",
      "era": "",
      "protection_level": "",
      "address": "",
      "town": "西樵镇",
      "lng": 112.917861,
      "lat": 22.992725,
      "id": "ANC_0122"
    },
    {
      "name": "民乐圩市建筑群/民乐窦",
      "anchor_type": "文化景观",
      "sub_type": "",
      "era": "",
      "protection_level": "",
      "address": "",
      "town": "西樵镇",
      "lng": 112.95,
      "lat": 22.96,
      "id": "ANC_0123"
    },
    {
      "name": "西樵山天湖",
      "anchor_type": "文化景观",
      "sub_type": "",
      "era": "",
      "protection_level": "",
      "address": "",
      "town": "西樵镇",
      "lng": 112.97,
      "lat": 22.93,
      "id": "ANC_0124"
    },
    {
      "name": "禄舟村古街巷",
      "anchor_type": "文化景观",
      "sub_type": "",
      "era": "",
      "protection_level": "",
      "address": "",
      "town": "西樵镇",
      "lng": 112.95,
      "lat": 22.92,
      "id": "ANC_0125"
    },
    {
      "name": "金花庙",
      "anchor_type": "文化景观",
      "sub_type": "",
      "era": "",
      "protection_level": "",
      "address": "",
      "town": "西樵镇",
      "lng": 0,
      "lat": 0,
      "id": "ANC_0126"
    },
    {
      "name": "渔耕粤韵桑基鱼塘",
      "anchor_type": "文化景观",
      "sub_type": "",
      "era": "",
      "protection_level": "",
      "address": "",
      "town": "西樵镇",
      "lng": 112.98,
      "lat": 22.9,
      "id": "ANC_0127"
    },
    {
      "name": "朝山红楼",
      "anchor_type": "文化景观",
      "sub_type": "",
      "era": "",
      "protection_level": "",
      "address": "",
      "town": "西樵镇",
      "lng": 112.98,
      "lat": 22.89,
      "id": "ANC_0128"
    },
    {
      "name": "烟桥村古桥",
      "anchor_type": "文化景观",
      "sub_type": "",
      "era": "",
      "protection_level": "",
      "address": "",
      "town": "九江镇",
      "lng": 112.96,
      "lat": 22.87,
      "id": "ANC_0129"
    },
    {
      "name": "风水百足桥",
      "anchor_type": "文化景观",
      "sub_type": "",
      "era": "",
      "protection_level": "",
      "address": "",
      "town": "九江镇",
      "lng": 112.98,
      "lat": 22.86,
      "id": "ANC_0130"
    },
    {
      "name": "河清码头",
      "anchor_type": "文化景观",
      "sub_type": "",
      "era": "",
      "protection_level": "",
      "address": "",
      "town": "九江镇",
      "lng": 112.94,
      "lat": 22.85,
      "id": "ANC_0131"
    },
    {
      "name": "红棉公园民国建筑群",
      "anchor_type": "文化景观",
      "sub_type": "",
      "era": "",
      "protection_level": "",
      "address": "",
      "town": "九江镇",
      "lng": 113.01,
      "lat": 22.83,
      "id": "ANC_0132"
    },
    {
      "name": "岑局楼",
      "anchor_type": "文化景观",
      "sub_type": "",
      "era": "",
      "protection_level": "",
      "address": "",
      "town": "九江镇",
      "lng": 113.03,
      "lat": 22.83,
      "id": "ANC_0133"
    },
    {
      "name": "中西郑家大院",
      "anchor_type": "文化景观",
      "sub_type": "",
      "era": "",
      "protection_level": "",
      "address": "",
      "town": "九江镇",
      "lng": 113.05,
      "lat": 22.82,
      "id": "ANC_0134"
    },
    {
      "name": "平沙岛",
      "anchor_type": "文化景观",
      "sub_type": "",
      "era": "",
      "protection_level": "",
      "address": "",
      "town": "西樵镇",
      "lng": 112.883901,
      "lat": 22.931463,
      "id": "ANC_0135"
    },
    {
      "name": "西樵镇",
      "anchor_type": "历史文化名村",
      "sub_type": "中国历史文化名镇",
      "era": "",
      "protection_level": "中国历史文化名镇",
      "address": "",
      "town": "西樵镇",
      "lng": 112.99,
      "lat": 22.94,
      "id": "ANC_0136"
    },
    {
      "name": "西樵镇松塘村",
      "anchor_type": "历史文化名村",
      "sub_type": "国家级传统村落",
      "era": "",
      "protection_level": "国家级传统村落",
      "address": "",
      "town": "松塘村",
      "lng": 112.917861,
      "lat": 22.992725,
      "id": "ANC_0137"
    },
    {
      "name": "西樵镇简村村",
      "anchor_type": "历史文化名村",
      "sub_type": "广东省历史文化名村",
      "era": "",
      "protection_level": "广东省历史文化名村",
      "address": "",
      "town": "简村村",
      "lng": 112.963901,
      "lat": 22.952089,
      "id": "ANC_0138"
    },
    {
      "name": "西樵镇百西村头村",
      "anchor_type": "历史文化名村",
      "sub_type": "广东省历史文化名村",
      "era": "",
      "protection_level": "广东省历史文化名村",
      "address": "",
      "town": "村头村",
      "lng": 112.927552,
      "lat": 22.967856,
      "id": "ANC_0139"
    },
    {
      "name": "九江镇烟桥烟南村",
      "anchor_type": "历史文化名村",
      "sub_type": "国家级传统村落",
      "era": "",
      "protection_level": "国家级传统村落",
      "address": "",
      "town": "nan",
      "lng": 112.965586,
      "lat": 22.87848,
      "id": "ANC_0140"
    },
    {
      "name": "丹灶镇仙岗村",
      "anchor_type": "历史文化名村",
      "sub_type": "广东省历史文化名村",
      "era": "",
      "protection_level": "广东省历史文化名村",
      "address": "",
      "town": "仙岗村",
      "lng": 112.891164,
      "lat": 23.046503,
      "id": "ANC_0141"
    },
    {
      "name": "丹灶镇南沙棋盘村",
      "anchor_type": "历史文化名村",
      "sub_type": "广东省历史文化名村",
      "era": "",
      "protection_level": "广东省历史文化名村",
      "address": "",
      "town": "棋盘村",
      "lng": 112.9,
      "lat": 23.12,
      "id": "ANC_0142"
    },
    {
      "name": "丹灶镇仙岗社区",
      "anchor_type": "历史文化名村",
      "sub_type": "国家级传统村落",
      "era": "",
      "protection_level": "国家级传统村落",
      "address": "",
      "town": "仙岗社区",
      "lng": 112.88,
      "lat": 23.05,
      "id": "ANC_0143"
    },
    {
      "name": "西樵镇百西村",
      "anchor_type": "历史文化名村",
      "sub_type": "省级传统村落",
      "era": "",
      "protection_level": "省级传统村落",
      "address": "",
      "town": "百西社区",
      "lng": 112.92,
      "lat": 22.96,
      "id": "ANC_0144"
    },
    {
      "name": "丹灶镇棋盘村",
      "anchor_type": "历史文化名村",
      "sub_type": "省级传统村落",
      "era": "",
      "protection_level": "省级传统村落",
      "address": "",
      "town": "nan",
      "lng": 112.9,
      "lat": 23.12,
      "id": "ANC_0145"
    },
    {
      "name": "九江镇烟桥村",
      "anchor_type": "历史文化名村",
      "sub_type": "省级传统村落",
      "era": "",
      "protection_level": "省级传统村落",
      "address": "",
      "town": "nan",
      "lng": 112.965586,
      "lat": 22.87848,
      "id": "ANC_0146"
    },
    {
      "name": "丹灶镇和平村",
      "anchor_type": "历史文化名村",
      "sub_type": "省级传统村落",
      "era": "",
      "protection_level": "省级传统村落",
      "address": "",
      "town": "和平村",
      "lng": 112.940406,
      "lat": 22.971261,
      "id": "ANC_0147"
    },
    {
      "name": "横江圩",
      "anchor_type": "圩市街区",
      "sub_type": "",
      "era": "",
      "protection_level": "",
      "address": "",
      "town": "",
      "lng": 112.911046,
      "lat": 23.103377,
      "id": "ANC_0148"
    },
    {
      "name": "仙岗市",
      "anchor_type": "圩市街区",
      "sub_type": "",
      "era": "",
      "protection_level": "",
      "address": "",
      "town": "",
      "lng": 112.887988,
      "lat": 23.042004,
      "id": "ANC_0149"
    },
    {
      "name": "西城市",
      "anchor_type": "圩市街区",
      "sub_type": "",
      "era": "",
      "protection_level": "",
      "address": "",
      "town": "",
      "lng": 112.894726,
      "lat": 23.025058,
      "id": "ANC_0150"
    },
    {
      "name": "银河桥市",
      "anchor_type": "圩市街区",
      "sub_type": "",
      "era": "",
      "protection_level": "",
      "address": "",
      "town": "",
      "lng": 112.912351,
      "lat": 23.007691,
      "id": "ANC_0151"
    },
    {
      "name": "竹径圩",
      "anchor_type": "圩市街区",
      "sub_type": "",
      "era": "",
      "protection_level": "",
      "address": "",
      "town": "",
      "lng": 112.914696,
      "lat": 23.026624,
      "id": "ANC_0152"
    },
    {
      "name": "罗行圩",
      "anchor_type": "圩市街区",
      "sub_type": "",
      "era": "",
      "protection_level": "",
      "address": "",
      "town": "",
      "lng": 112.952101,
      "lat": 23.029292,
      "id": "ANC_0153"
    },
    {
      "name": "大岸圩",
      "anchor_type": "圩市街区",
      "sub_type": "",
      "era": "",
      "protection_level": "",
      "address": "",
      "town": "",
      "lng": 112.966017,
      "lat": 22.985038,
      "id": "ANC_0154"
    },
    {
      "name": "沙基圩",
      "anchor_type": "圩市街区",
      "sub_type": "",
      "era": "",
      "protection_level": "",
      "address": "",
      "town": "",
      "lng": 112.916292,
      "lat": 22.983847,
      "id": "ANC_0155"
    },
    {
      "name": "大岗圩",
      "anchor_type": "圩市街区",
      "sub_type": "",
      "era": "",
      "protection_level": "",
      "address": "",
      "town": "",
      "lng": 112.921201,
      "lat": 22.974416,
      "id": "ANC_0156"
    },
    {
      "name": "民乐市",
      "anchor_type": "圩市街区",
      "sub_type": "",
      "era": "",
      "protection_level": "",
      "address": "",
      "town": "",
      "lng": 112.953955,
      "lat": 22.959112,
      "id": "ANC_0157"
    },
    {
      "name": "太平圩",
      "anchor_type": "圩市街区",
      "sub_type": "",
      "era": "",
      "protection_level": "",
      "address": "",
      "town": "",
      "lng": 112.905097,
      "lat": 22.929496,
      "id": "ANC_0158"
    },
    {
      "name": "官山圩",
      "anchor_type": "圩市街区",
      "sub_type": "",
      "era": "",
      "protection_level": "",
      "address": "",
      "town": "",
      "lng": 112.975635,
      "lat": 22.941597,
      "id": "ANC_0159"
    },
    {
      "name": "大桐圩",
      "anchor_type": "圩市街区",
      "sub_type": "",
      "era": "",
      "protection_level": "",
      "address": "",
      "town": "",
      "lng": 112.989197,
      "lat": 22.88795,
      "id": "ANC_0160"
    },
    {
      "name": "河清圩",
      "anchor_type": "圩市街区",
      "sub_type": "",
      "era": "",
      "protection_level": "",
      "address": "",
      "town": "",
      "lng": 112.942874,
      "lat": 22.849496,
      "id": "ANC_0161"
    },
    {
      "name": "大伸市",
      "anchor_type": "圩市街区",
      "sub_type": "",
      "era": "",
      "protection_level": "",
      "address": "",
      "town": "",
      "lng": 113.006027,
      "lat": 22.847445,
      "id": "ANC_0162"
    },
    {
      "name": "九江圩",
      "anchor_type": "圩市街区",
      "sub_type": "",
      "era": "",
      "protection_level": "",
      "address": "",
      "town": "",
      "lng": 113.011151,
      "lat": 22.833356,
      "id": "ANC_0163"
    },
    {
      "name": "大谷市",
      "anchor_type": "圩市街区",
      "sub_type": "",
      "era": "",
      "protection_level": "",
      "address": "",
      "town": "",
      "lng": 113.042988,
      "lat": 22.828252,
      "id": "ANC_0164"
    },
    {
      "name": "沙口圩",
      "anchor_type": "圩市街区",
      "sub_type": "",
      "era": "",
      "protection_level": "",
      "address": "",
      "town": "",
      "lng": 113.0361,
      "lat": 22.813074,
      "id": "ANC_0165"
    }
  ]
}