id,name,category,original_type,address,town,lng,lat,rating,has_nonheritage,nonheritage_match,query_type
B0FFIZPS1X,五斗水闸牌坊,自然景观,风景名胜;风景名胜相关;旅游景点,五斗大道中与五斗大道东交叉口北20米,桂城街道,113.20803,23.013883,4.3,False,,旅游景点
B0FFGA58BQ,银坑村祠堂(乡约),自然景观,风景名胜;风景名胜;风景名胜,庆云大道西北侧,西樵镇,112.883841,22.858808,4.1,False,,旅游景点
B0FFFEOXGO,拱北公园,自然景观,风景名胜;公园广场;公园,兴隆大街66铺,里水镇,113.122488,23.115259,4.3,False,,旅游景点
B0FFGZ0A5W,恒大御景半岛钟楼,自然景观,风景名胜;风景名胜;风景名胜,村前大路与新村一路交叉口东160米,里水镇,113.206273,23.185379,4.3,False,,旅游景点
B0FFFU6C0S,大德社区活动公园,自然景观,风景名胜;公园广场;公园,平洲大德社区,桂城街道,113.195306,23.034234,4.0,False,,旅游景点
B02F507LDP,马大将军庙,自然景观,风景名胜;风景名胜;寺庙道观,金桔园4号,桂城街道,113.149013,23.004873,3.9,False,,旅游景点
B02F5045QD,真成周公祠,自然景观,风景名胜;风景名胜;寺庙道观,里水镇和桂工业园石塘上北村大街十一巷1号,里水镇,113.093316,23.277428,4.0,False,,旅游景点
B02F50V3ZM,基督教里水堂,自然景观,风景名胜;风景名胜;教堂,环镇南路与里水大道交叉口西北200米,里水镇,113.150468,23.180009,4.1,False,,旅游景点
B02F507JSS,大沥公园,自然景观,风景名胜;公园广场;公园,兴隆街1号,大沥镇,113.12273,23.111971,4.3,False,,旅游景点
B0FFIOXZ4F,祖盛徐公祠,自然景观,风景名胜;风景名胜相关;旅游景点,八甲村,狮山镇,112.931265,23.089919,3.9,False,,旅游景点
B0FFI2ATL2,胡氏宗祠,自然景观,风景名胜;风景名胜;寺庙道观,伴仙港新村四巷与伴北路交叉口西北100米,里水镇,113.133419,23.180881,3.9,False,,旅游景点
B0FFI29O18,罗城三眼井,自然景观,风景名胜;风景名胜相关;旅游景点,济南路与罗城工业大道交叉口西北240米,里水镇,113.141389,23.1262,4.2,False,,旅游景点
B0FFH42V09,慕道马公祠,自然景观,风景名胜;风景名胜相关;旅游景点,里大线与里水通道交叉口东北80米,里水镇,113.163914,23.201289,4.0,False,,旅游景点
B0FFGAUTTN,寨边五队李氏宗祠,自然景观,风景名胜;风景名胜相关;旅游景点,罗村街道寨边村五队,狮山镇,113.05529,23.052069,3.9,False,,旅游景点
B0FFFZ1P4M,潘氏宗祠,自然景观,风景名胜;风景名胜;寺庙道观,永青路与永平村东街交叉口西北60米,里水镇,113.17906,23.080363,4.1,False,,旅游景点
B02F50Y7VB,茶基三圣宫,自然景观,风景名胜;风景名胜;寺庙道观,叠南茶基村428号,桂城街道,113.125265,23.052211,4.2,False,,旅游景点
B02F50UZ0J,芦溪公园,自然景观,风景名胜;公园广场;公园,狮山镇芦塘小学,狮山镇,113.04637,23.068734,4.0,False,,旅游景点
B02F5077P8,观音古庙,自然景观,风景名胜;风景名胜;寺庙道观,西樵镇崇南窦头村,西樵镇,112.988079,22.964669,4.1,False,,旅游景点
B02F50779V,胡氏宗祠,自然景观,风景名胜;风景名胜;寺庙道观,梅屋大街北侧,丹灶镇,113.04437,22.915141,4.1,False,,旅游景点
B02F5076X1,和桂文化广场,自然景观,风景名胜;公园广场;城市广场,和顺和桂工业园首期和桂大道8号,里水镇,113.097516,23.266155,3.9,False,,旅游景点
B0FFI2NKOS,刘氏宗祠,自然景观,风景名胜;风景名胜;寺庙道观,布新大道与339村道交叉口南340米,大沥镇,113.105078,23.208956,4.0,False,,旅游景点
B0FFI8R7U0,大藤水岸公园,自然景观,风景名胜;公园广场;公园,,狮山镇,112.968019,23.072709,4.1,False,,旅游景点
B0FFF9YW23,南国桃园-南海观音寺-三圣殿,自然景观,风景名胜;风景名胜相关;旅游景点,凤凰路南国桃园南海观音寺(东北角),大沥镇,113.109446,23.177103,4.4,False,,旅游景点
B0FFHQ82GN,南海区基督教官窑堂,自然景观,风景名胜;风景名胜;教堂,驿园西路55号,狮山镇,113.074741,23.22898,3.9,False,,旅游景点
B0FFI47T13,大石古庙公园,自然景观,风景名胜;公园广场;公园,里水镇大石工业区(二圣古庙旁),里水镇,113.127932,23.197279,4.1,False,,旅游景点
B0FFHTZ1CY,玄武庙,自然景观,风景名胜;风景名胜;寺庙道观,大沥镇盐步东秀官田村,大沥镇,113.202008,23.090113,4.3,False,,旅游景点
B0FFGPUY2E,慧庆禅寺,自然景观,风景名胜;风景名胜;寺庙道观,佛下段,狮山镇,113.019029,23.06951,4.2,False,,旅游景点
B0FFF9QSF5,百岁祠,自然景观,风景名胜;风景名胜;寺庙道观,狮山镇穆院村新誉洞,狮山镇,113.026602,23.109361,4.1,False,,旅游景点
B02F50WJ1N,蛇三公园,自然景观,风景名胜;公园广场;公园,龙蛇三村东街,里水镇,113.135641,23.098922,4.2,False,,旅游景点
B02F50WFQ7,下沙滘文化广场,自然景观,风景名胜;公园广场;城市广场,丹灶大金工业区3号东南方向180米,丹灶镇,112.947552,23.052086,4.3,False,,旅游景点
B02F50UEO4,杜氏大宗祠,自然景观,风景名胜;风景名胜;寺庙道观,大沥镇黄岐白沙中心路20号,大沥镇,113.202257,23.133661,4.2,False,,旅游景点
B02F5077AV,大谷天后宫,自然景观,风景名胜;风景名胜;寺庙道观,九江镇(大谷运河旁),九江镇,113.044815,22.830577,4.2,False,,旅游景点
B02F50767M,本立黄公祠,自然景观,风景名胜;风景名胜;寺庙道观,北环路下柏北区新村东侧约100米,狮山镇,113.02107,23.065418,4.1,False,,旅游景点
B02F50UEOH,信峰公园,自然景观,风景名胜;公园广场;公园,里水镇壮尤坊,里水镇,113.166471,23.201059,4.1,False,,旅游景点
B02F507B10,张边南公园,自然景观,风景名胜;公园广场;公园,大沥镇高边村,大沥镇,113.096157,23.11927,4.3,False,,旅游景点
B0FFHS6566,郭氏宗祠,自然景观,风景名胜;风景名胜;寺庙道观,沙云线与禅西大道辅路交叉口西160米,大沥镇,113.067262,23.062151,4.1,False,,旅游景点
B0FFHLTQ3Y,善薮吴公祠,自然景观,风景名胜;风景名胜;寺庙道观,荔庄西区西北门闸口,里水镇,113.133878,23.110373,4.0,False,,旅游景点
B0FFGJBA03,麦氏宗祠(不对外开放),自然景观,风景名胜;风景名胜相关;旅游景点,巷心街西与右江村新村街交叉口西北480米,丹灶镇,112.955626,23.049197,3.9,False,,旅游景点
B02F5078F5,曾氏宗祠,自然景观,风景名胜;风景名胜;寺庙道观,狮山镇新发路,狮山镇,112.993361,23.072428,3.9,False,,旅游景点
B02F507708,宝莲寺,自然景观,风景名胜;风景名胜;寺庙道观,西樵镇江边村,西樵镇,112.963174,22.911141,4.0,False,,旅游景点
B0FFH43SXO,唐氏宗祠,自然景观,风景名胜;风景名胜;寺庙道观,S55广三高速出口西南30米,里水镇,113.1245,23.129054,4.1,False,,旅游景点
B02F50XH9A,雅瑶文化广场,自然景观,风景名胜;公园广场;城市广场,雅瑶岗东村大街,里水镇,113.144797,23.129505,4.2,False,,旅游景点
B0FFIN0W3H,贤僚公园,自然景观,风景名胜;公园广场;公园,团结街,里水镇,113.170488,23.257755,4.2,False,,旅游景点
B0FFH49B76,天南圣裔,自然景观,风景名胜;风景名胜;风景名胜,大沥镇黄岐南村东区五巷六号,大沥镇,113.175729,23.111513,4.0,False,,旅游景点
B0FFH989SN,九江镇望海观音寺(不对外开放),自然景观,风景名胜;风景名胜;寺庙道观,九江镇下西乐只村,九江镇,113.006075,22.822722,4.1,False,,旅游景点
B0FFJ5JXOQ,中共南三花工委旧址,自然景观,风景名胜;风景名胜;红色景区,沈五五巷1号,里水镇,113.141342,23.191706,4.4,False,,旅游景点
B02F5077OQ,大镇二中公园,自然景观,风景名胜;公园广场;公园,大沥镇大镇大道,大沥镇,113.110262,23.081638,4.2,False,,旅游景点
B02F50WG6V,中共南海县委旧址,自然景观,风景名胜;风景名胜;红色景区,狮山镇显纲村中和巷234号,狮山镇,113.100939,23.134657,4.3,False,,旅游景点
B0FFH44AZT,十四世周公祠,自然景观,风景名胜;风景名胜相关;旅游景点,大沥镇虹岭路横岗1队,大沥镇,113.067352,23.096202,4.1,False,,旅游景点
B0FFIR3WFQ,黄氏宗祠,自然景观,风景名胜;风景名胜;寺庙道观,岗联四联村联二街五巷,大沥镇,113.105668,23.206358,3.9,False,,旅游景点
B02F511C42,元冈古庙,自然景观,风景名胜;风景名胜;寺庙道观,元大线与禅炭路交叉口东北220米,大沥镇,113.085772,23.183858,4.0,False,,旅游景点
B0FFH47SVE,罗氏宗祠,自然景观,风景名胜;风景名胜;寺庙道观,石塘路与松夏大道西交叉口北460米,狮山镇,113.058429,23.181952,3.9,False,,旅游景点
B0FFG3CTQM,甘蕉公园,自然景观,风景名胜;公园广场;公园,文林街70号,里水镇,113.142719,23.172335,4.1,False,,旅游景点
B0FFFOF058,𧒽岗公园-魁星阁,自然景观,风景名胜;风景名胜;风景名胜,佛平二路,桂城街道,113.146329,23.040377,4.3,False,,旅游景点
B0FFF9XGDJ,帅府,自然景观,风景名胜;风景名胜相关;旅游景点,泰山路与三山大道交叉口东南340米,桂城街道,113.238043,23.032801,4.2,False,,旅游景点
B0FFF0FDHE,佛山植物园,自然景观,风景名胜;公园广场;植物园,狮山镇兴业西路17号,狮山镇,112.99295,23.097592,4.6,False,,旅游景点
B02F50XHK7,市民广场,自然景观,风景名胜;公园广场;城市广场,博爱路附近,狮山镇,113.002752,23.119338,4.0,False,,旅游景点
B0FFI5QK1X,唐氏大宗祠,自然景观,风景名胜;风景名胜;寺庙道观,文文线与三槐里大街交叉口东南380米,里水镇,113.156659,23.246521,4.1,False,,旅游景点
B0FFH4AE58,谭氏宗祠,自然景观,风景名胜;风景名胜;寺庙道观,,里水镇,113.15614,23.236106,3.7,False,,旅游景点
B02F503RDN,南庄张公祠,自然景观,风景名胜;风景名胜;寺庙道观,迎龙路1号,大沥镇,113.101194,23.133192,4.0,False,,旅游景点
B0FFJ0DV69,江美麦氏宗祠,自然景观,风景名胜;风景名胜相关;旅游景点,狮山镇兴业北路(贝奇科技工业园东北侧约200米),狮山镇,112.979843,23.161462,4.0,False,,旅游景点
B0FFH3ZEI7,何氏大宗祠,自然景观,风景名胜;风景名胜;寺庙道观,狮山镇大榄一村,狮山镇,113.028958,23.190678,3.9,False,,旅游景点
B02F50UVAK,上街公园,自然景观,风景名胜;公园广场;公园,大沥镇颜峰上街村,大沥镇,113.083965,23.135734,4.0,False,,旅游景点
B02F506TPF,观荣何公祠,自然景观,风景名胜;风景名胜;寺庙道观,富山路12号,狮山镇,112.987068,23.14306,4.0,False,,旅游景点
B0FFJKIBZ7,胜利公园,自然景观,风景名胜;公园广场;公园,里水镇胜利村,里水镇,113.180723,23.19054,3.9,False,,旅游景点
B0FFJ49GKR,莫氏宗祠,自然景观,风景名胜;风景名胜;风景名胜,百东互通与保台线交叉口东240米,丹灶镇,112.929638,22.974353,4.0,False,,旅游景点
B0FFIB0UGZ,黄氏宗祠,自然景观,风景名胜;风景名胜;寺庙道观,里水市场大道与大水线交叉口西180米,里水镇,113.128331,23.198451,3.9,False,,旅游景点
B0FFI88KH1,程氏大宗祠,自然景观,风景名胜;风景名胜;寺庙道观,西樵伊洛村新村南一街,西樵镇,112.947512,22.970814,4.1,False,,旅游景点
B0FFHS5BUQ,宣抚使梁公祠,自然景观,风景名胜;风景名胜;寺庙道观,中村路与清风路交叉口东北100米,桂城街道,113.157707,23.005957,4.0,False,,旅游景点
B0FFHROM95,黎氏宗祠,自然景观,风景名胜;风景名胜;寺庙道观,桂城街道罗芳村罗东文化室黎氏祠堂,桂城街道,113.169065,23.049273,4.1,False,,旅游景点
B0FFHOJ880,灵王古庙,自然景观,风景名胜;风景名胜;寺庙道观,狮山镇官窑街沙头村文智村,狮山镇,112.992351,23.211164,4.1,False,,旅游景点
B0FFHLTCIH,石碣朗枝岗健身公园,自然景观,风景名胜;公园广场;公园|体育休闲服务;运动场馆;户外健身场所,石碣村,大沥镇,113.08804,23.152971,4.0,False,,旅游景点
B0FFH45OVG,宋提督梁公祠,自然景观,风景名胜;风景名胜;寺庙道观,平洲平西路上良北街23号,桂城街道,113.195264,23.020945,3.8,False,,旅游景点
B0FFH450LE,黄氏宗祠,自然景观,风景名胜;风景名胜;寺庙道观,穗盐东路与虎榜大道交叉口东北180米,里水镇,113.181799,23.096786,3.9,False,,旅游景点
B0FFH44SLF,莲园,自然景观,风景名胜;公园广场;公园,布新大道与官里路交叉口西南280米,大沥镇,113.102695,23.214909,4.0,False,,旅游景点
B0FFH43J60,雪松刘公祠,自然景观,风景名胜;风景名胜相关;旅游景点,东向大街七巷与东向大街交叉口西160米,里水镇,113.134854,23.10241,4.0,False,,旅游景点
B0FFH438A9,松隐家塾,自然景观,风景名胜;风景名胜相关;旅游景点,颜边村新街34附近,里水镇,113.153404,23.090776,3.9,False,,旅游景点
B0FFH4051X,区氏大宗祠,自然景观,风景名胜;风景名胜;寺庙道观,奇槎路,里水镇,113.138333,23.083107,4.2,False,,旅游景点
B0FFGKB2EC,月川高公祠,自然景观,风景名胜;风景名胜;寺庙道观,右江村新村街北150米,丹灶镇,112.955501,23.045104,4.0,False,,旅游景点
B0FFFTNSFT,泌冲社区群众文化广场,自然景观,风景名胜;公园广场;城市广场,大沥镇泌冲社区,大沥镇,113.179154,23.152017,4.0,False,,旅游景点
B0FFFTB749,迎宾广场,自然景观,风景名胜;公园广场;城市广场,西樵镇512县道松塘村总公交站东南,西樵镇,112.914121,22.98512,4.0,False,,旅游景点
B0FFFA08UD,李氏宗祠,自然景观,风景名胜;风景名胜;寺庙道观,华沙路与富民三路交叉口西北340米,狮山镇,112.99534,23.19254,3.8,False,,旅游景点
B02F50WH85,河滨公园,自然景观,风景名胜;公园广场;公园,西樵汽车站附近,西樵镇,112.98903,22.946354,3.8,False,,旅游景点
B02F503A1O,贵州孔公祠,自然景观,风景名胜;风景名胜;寺庙道观,石石线与石塘路交叉口西南360米,大沥镇,113.085653,23.154917,4.0,False,,旅游景点
B0FFHDSW5V,华光庙广场,自然景观,风景名胜;公园广场;城市广场,海傍北路,里水镇,113.172727,23.085796,4.1,False,,旅游景点
B0FFHHH21X,曾氏宗祠,自然景观,风景名胜;风景名胜;寺庙道观,沥头大街东九巷与联江路交叉口西340米,里水镇,113.120685,23.1334,3.9,False,,旅游景点
B0FFGJUPSP,岑氏宗祠,自然景观,风景名胜;风景名胜;寺庙道观,儒溪小学附近,西樵镇,112.953257,22.902336,4.0,False,,旅游景点
B02F5042MP,严氏宗祠,自然景观,风景名胜;风景名胜;寺庙道观,中街与工业大道东交叉口西200米,狮山镇,113.008989,23.141172,3.9,False,,旅游景点
B0FFHP1BRN,东山麦公祠,自然景观,风景名胜;风景名胜;寺庙道观,西线路与桂和公路交叉口西南240米,大沥镇,113.114084,23.197581,4.0,False,,旅游景点
B0FFG1FMAZ,环四社址,自然景观,风景名胜;风景名胜相关;旅游景点,环四新路与夏南路交叉口东北80米,桂城街道,113.177929,23.046234,4.1,False,,旅游景点
B0FFHDMBVD,珍奇植物园,自然景观,风景名胜;公园广场;植物园,狮山镇兴业西路17号佛山植物园,狮山镇,112.993892,23.098207,3.5,False,,旅游景点
B0FFH3XLIE,钟氏大宗祠,自然景观,风景名胜;风景名胜;风景名胜,钟边大道大沥镇钟边学校,大沥镇,113.113536,23.097179,3.9,False,,旅游景点
B0FFG061WV,南国桃园-南海观音寺-土地庙,自然景观,风景名胜;风景名胜;寺庙道观,凤凰路1号南海观音寺内,大沥镇,113.108277,23.175545,3.7,False,,旅游景点
B0FFG05JKG,南国桃园-南海观音寺-姻缘树,自然景观,风景名胜;风景名胜;风景名胜,南海观音寺内(北侧),大沥镇,113.108664,23.176622,3.7,False,,旅游景点
B0FFFEO02X,西樵山国艺影视城-地藏菩萨,自然景观,风景名胜;风景名胜;寺庙道观,西樵山国艺影视城内(东侧),西樵镇,112.976298,22.907376,3.4,False,,旅游景点
B02F50U8YA,吕氏宗祠,自然景观,风景名胜;风景名胜相关;旅游景点,甫大街,大沥镇,113.091267,23.234989,3.7,False,,旅游景点
B02F503YRA,万氏大宗祠,自然景观,风景名胜;风景名胜;寺庙道观,工业大道东1号,大沥镇,113.080053,23.179928,3.9,False,,旅游景点
B0FFJ8L54R,仙湖音乐喷泉广场,自然景观,风景名胜;公园广场;公园广场,祈福湖滨南岸东北(湖景路北),狮山镇,112.890483,23.052763,4.3,False,,旅游景点
B0FFIKDTX5,天空之眼摩天轮(金沙洲万达广场),自然景观,体育休闲服务;休闲场所;游乐场|风景名胜;公园广场;公园,浪险猴天地6层,里水镇,113.197274,23.140697,4.4,False,,旅游景点
B0FFHF702W,梦里水乡百花园,自然景观,风景名胜;风景名胜;风景名胜,佛山一环高速入口,里水镇,113.174503,23.226727,4.4,False,,旅游景点
B0FFGX05AY,西樵山风景名胜区-樵园公园,自然景观,风景名胜;风景名胜相关;旅游景点,西樵镇环山大道西樵山风景名胜区内(北侧),西樵镇,112.965614,22.936377,4.2,False,,旅游景点
B0FFGRN2SF,茶花园,自然景观,风景名胜;风景名胜相关;旅游景点,西樵镇山南路西樵山风景名胜区内(西北角),西樵镇,112.964862,22.933524,4.0,False,,旅游景点
B02F50YCH3,罗村中心广场,自然景观,风景名胜;公园广场;城市广场,桂丹路与罗湖中路交叉口西200米,狮山镇,113.053367,23.060848,4.5,False,,风景名胜
B02F507H6Q,盐步公园,自然景观,风景名胜;公园广场;公园,大沥镇盐步环镇路(近盐步丽景酒家),大沥镇,113.182242,23.089336,4.5,False,,风景名胜
B02F50X8WM,小塘公园,自然景观,风景名胜;公园广场;公园,狮山镇小塘办事处,狮山镇,112.982834,23.090166,4.4,False,,风景名胜
B02F5076G7,𧒽岗公园,自然景观,风景名胜;公园广场;公园,桂城街道佛平二路,桂城街道,113.148454,23.04372,4.6,False,,风景名胜
B0FFG2ERMT,九龙公园,自然景观,风景名胜;公园广场;公园,广佛路12号(岭南公交站旁),里水镇,113.147827,23.109498,4.6,False,,风景名胜
B0FFGI15WQ,文翰湖公园,自然景观,风景名胜;公园广场;公园,环岛南路橹尾橇水道北侧,桂城街道,113.239334,23.015086,4.6,False,,风景名胜
B02F5079WX,桂城儿童公园,自然景观,风景名胜;公园广场;公园,南港路60号,桂城街道,113.209412,23.037355,4.7,False,,风景名胜
B02F5077X7,南海全民健身体育公园,自然景观,风景名胜;公园广场;公园,桂江立交桥附近,桂城街道,113.143198,23.069368,4.5,False,,风景名胜
B0FFF4FNIM,孝德湖公园,自然景观,风景名胜;公园广场;公园|风景名胜;风景名胜;风景名胜,机场西路与北湖三路交汇处附近,狮山镇,113.059408,23.069717,4.6,False,,风景名胜
B02F50YS3U,三山森林公园,自然景观,风景名胜;公园广场;公园|风景名胜;风景名胜;风景名胜,,桂城街道,113.227994,23.031471,4.6,False,,风景名胜
B02F508S6H,河村公园,自然景观,风景名胜;公园广场;公园,西紫村东街22号,里水镇,113.161808,23.180423,4.4,False,,风景名胜
B0I6JAZCBW,桂城滨江公园,自然景观,风景名胜;公园广场;公园,滨江公园,桂城街道,113.16354,23.072984,4.4,False,,风景名胜
B0FFIUK5ZQ,千灯湖公园北区,自然景观,风景名胜;公园广场;公园广场,南七路,桂城街道,113.147039,23.069885,4.5,False,,风景名胜
B02F50UO1V,官窑文化广场,自然景观,风景名胜;公园广场;城市广场,官窑瑶平路,狮山镇,113.077973,23.222205,4.4,False,,风景名胜
B0FFHJ45NL,天湖公园,自然景观,风景名胜;公园广场;公园,西樵镇山南路西樵山风景名胜区内(西北角),西樵镇,112.96723,22.929192,4.2,False,,风景名胜
B02F505DOJ,松岗文化公园,自然景观,风景名胜;公园广场;公园,松岗大道6号,大沥镇,113.104572,23.136613,4.3,False,,风景名胜
B02F50XH7S,曹边休闲广场,自然景观,风景名胜;公园广场;城市广场,大沥曹边工业区,大沥镇,113.099818,23.085641,4.4,False,,风景名胜
B02F50YS3L,兴贤党群文化广场,自然景观,风景名胜;公园广场;城市广场,大沥镇贤谭路西50米,大沥镇,113.0781,23.122057,4.3,False,,风景名胜
B0KD1UCTS7,佛山海洋馆,自然景观,风景名胜;公园广场;水族馆,大沥镇水头工业南路2号粤和商业楼1座首层3号,大沥镇,113.139366,23.091223,4.5,False,,风景名胜
B0FFFSH0VD,洲村公园,自然景观,风景名胜;公园广场;公园,里水镇二横路1号,里水镇,113.199093,23.179736,4.3,False,,风景名胜
B02F50WJ4R,映月湖公园,自然景观,风景名胜;公园广场;公园,南港路富景花园隔壁,桂城街道,113.196447,23.039077,4.4,False,,风景名胜
B02F507B1N,大基尾公园,自然景观,风景名胜;公园广场;公园,大沥镇,大沥镇,113.153613,23.088132,4.3,False,,风景名胜
B0JAXH5P1A,博爱湖东草坪广场,自然景观,风景名胜;公园广场;城市广场,人民西路8号,狮山镇,112.991254,23.126214,4.3,False,,风景名胜
B0FFHHUPF8,市民广场,自然景观,风景名胜;公园广场;城市广场,灯湖西路南海千灯湖公园内,桂城街道,113.146338,23.053292,4.4,False,,风景名胜
B0FFFV3BG0,听音广场,自然景观,风景名胜;公园广场;公园广场,锦湖大道,西樵镇,112.957817,22.936726,4.3,False,,风景名胜
B0FFFH2PSL,黄岐公园,自然景观,风景名胜;公园广场;公园,北环东路黄岐商业步行街附近,大沥镇,113.192686,23.12078,4.4,False,,风景名胜
B0FFGZMQ3X,礌岗公园-千灯湖活水公园,自然景观,风景名胜;公园广场;公园,桂澜中路与海三路交叉口,桂城街道,113.148289,23.04705,4.3,False,,风景名胜
B02F508NQH,沿江公园,自然景观,风景名胜;公园广场;公园,里水镇滨江东路6号梦里水乡景区(东北角),里水镇,113.166044,23.194936,3.7,False,,风景名胜
B0FFKUREHD,展旗峰生态公园,自然景观,风景名胜;公园广场;公园,里水镇里水大道南翠林豪庭西南240米,里水镇,113.149032,23.151143,4.6,False,,风景名胜
B0G12CLO7V,半月岛生态公园(南海段),自然景观,风景名胜;公园广场;公园,石肯半月岛8号,桂城街道,113.165089,22.99806,4.4,False,,风景名胜
B0I6TALUOQ,追梦极限运动公园,自然景观,风景名胜;公园广场;公园|体育休闲服务;体育休闲服务场所;体育休闲服务场所,平胜大桥桥底,桂城街道,113.172899,23.013427,4.5,False,,风景名胜
B0FFMC25SW,佛山西站南广场,自然景观,风景名胜;公园广场;城市广场,西站西路,狮山镇,113.034204,23.077351,0,False,,风景名胜
B0L66CLM3K,千灯湖水生态研学基地科普型公园,自然景观,风景名胜;公园广场;公园,滨江二路,桂城街道,113.15084,23.069744,4.3,False,,风景名胜
B0LG3Z60XM,博爱湖体育公园,自然景观,风景名胜;公园广场;公园,兴业北路辅路与博爱路交叉口西北60米,狮山镇,112.986116,23.121585,4.3,False,,风景名胜
B02F50UENH,兴联村公园,自然景观,风景名胜;公园广场;公园,西冲口东街中段,里水镇,113.205786,23.12707,4.3,False,,风景名胜
B0ID6ZZHQG,尖东公园,自然景观,风景名胜;公园广场;公园,平西大道南58号,桂城街道,113.1784,23.015721,4.3,False,,风景名胜
B0FFGXHU4R,沙头文体公园,自然景观,风景名胜;公园广场;公园,万安二马路沙头邮政支局附近,丹灶镇,113.025914,22.914945,4.3,False,,风景名胜
B02F503PVG,南海湿地主题公园,自然景观,风景名胜;公园广场;公园,上安村,狮山镇,112.96519,23.08136,4.2,False,,风景名胜
B0FFG8RDGZ,兴隆公园,自然景观,风景名胜;公园广场;公园,白沙路,里水镇,113.208199,23.134157,4.4,False,,风景名胜
B0FFH48NWE,白岗公园,自然景观,风景名胜;公园广场;公园,里水镇和顺白岗村,里水镇,113.145581,23.234274,4.3,False,,风景名胜
B02F50WIYO,水口公园,自然景观,风景名胜;公园广场;公园,水口大道南端路口附近,里水镇,113.179534,23.172752,4.3,False,,风景名胜
B02F50XH7E,夏南二荷花广场,自然景观,风景名胜;公园广场;城市广场,夏南二大道与紫薇街交叉口西南80米,桂城街道,113.182601,23.053,4.3,False,,风景名胜
B02F501IST,东二公园,自然景观,风景名胜;公园广场;公园,中心大街15号,桂城街道,113.157122,23.026075,4.3,False,,风景名胜
B02F50WJ0Y,青龙公园,自然景观,风景名胜;公园广场;公园,陆家新街14号,里水镇,113.177461,23.084866,4.3,False,,风景名胜
B02F507706,朝山公园,自然景观,风景名胜;公园广场;公园,朝山村委会附近,丹灶镇,112.980287,22.88386,4.3,False,,风景名胜
B0FFGRRDMP,回龙公园,自然景观,风景名胜;公园广场;公园,回龙村430号,桂城街道,113.176433,23.072423,4.4,False,,风景名胜
B02F507H1E,大步公园,自然景观,风景名胜;公园广场;公园,大步村委会斜对面,里水镇,113.158276,23.13515,4.4,False,,风景名胜
B0FFLQE8AB,高铁公园,自然景观,风景名胜;公园广场;公园,桂城街道三山港口路,桂城街道,113.243563,23.021445,4.3,False,,风景名胜
B0K0NS6TE4,桂城童趣公园,自然景观,风景名胜;公园广场;公园,庆平街9号,桂城街道,113.171006,23.021247,4.3,False,,风景名胜
B02F507C6D,邓西公园,自然景观,风景名胜;公园广场;公园,大沥镇沥中邓西村,大沥镇,113.11783,23.120049,4.4,False,,风景名胜
B02F50WJ04,平地公园,自然景观,风景名胜;公园广场;公园,大沥镇盐步平地村德政路,大沥镇,113.157927,23.11672,4.3,False,,风景名胜
B0M6N5EO7W,里水嘉州广场,自然景观,风景名胜;公园广场;城市广场,甘蕉副业路与里水大道交叉口西北60米,里水镇,113.148626,23.174916,4.2,False,,风景名胜
B02F50UBVB,九村公园,自然景观,风景名胜;公园广场;公园,村东大街3号,里水镇,113.183387,23.114721,4.4,False,,风景名胜
B0FFF48BGP,灯湖市政公园,自然景观,风景名胜;公园广场;公园,灯湖西路东150米,桂城街道,113.147056,23.065597,4.1,False,,风景名胜
B0HB2UW3WB,三山森林公园2期,自然景观,风景名胜;公园广场;公园,涌源南路与涌源居委南街交叉口东360米,桂城街道,113.227408,23.032147,4.1,False,,风景名胜
B0HDXA9W18,千灯湖体育公园,自然景观,风景名胜;公园广场;公园,南海大道与海五路交汇东南角,桂城街道,113.141349,23.054262,4.3,False,,风景名胜
B02F50XRFS,横江公园,自然景观,风景名胜;公园广场;公园,美乐大街1巷5号,里水镇,113.165968,23.112234,4.3,False,,风景名胜
B0L35XFEME,源林·九江龙舟公园,自然景观,风景名胜;公园广场;公园,太平西街105号,九江镇,113.000364,22.842553,4.2,True,龙舟,风景名胜
B0FFIZMLRU,赤山公园,自然景观,风景名胜;公园广场;公园,赤山村,里水镇,113.138012,23.217217,4.2,False,,风景名胜
B0FFMDFCA0,陈溪公园,自然景观,风景名胜;公园广场;公园,大沥镇陈溪东街与兴联北路交叉口西北角,大沥镇,113.202211,23.137273,4.3,False,,风景名胜
B02F50UND7,平南公园,自然景观,风景名胜;公园广场;公园,祥胜南路40号,桂城街道,113.200189,23.013721,4.3,False,,风景名胜
B0FFHF0E1H,富寿公园,自然景观,风景名胜;公园广场;公园,沿江西路,里水镇,113.163323,23.193644,4.2,False,,风景名胜
B0FFF4BLV4,道头公园,自然景观,风景名胜;公园广场;公园,德政路与南十巷交汇处,里水镇,113.153722,23.116177,4.4,False,,风景名胜
B0IKVZFDHU,源林西江湿地公园,自然景观,风景名胜;公园广场;公园,九江镇新堤东路与洪圣村路交叉口西北220米,九江镇,113.001888,22.826859,4.2,False,,风景名胜
B02F507B1X,颜边公园,自然景观,风景名胜;公园广场;公园,颜边村新街,里水镇,113.152129,23.090207,4.3,False,,风景名胜
B0KRJ17D5U,金沙岛国家湿地公园进口广场,自然景观,风景名胜;公园广场;城市广场,桂丹西路,狮山镇,112.967764,23.068434,4.2,False,,风景名胜
B02F507H0X,上沙涌公园,自然景观,风景名胜;公园广场;公园,上沙涌市场斜对面,里水镇,113.16838,23.151335,4.3,False,,风景名胜
B02F511V5K,夏南二公园,自然景观,风景名胜;公园广场;公园广场,石岸口新村,桂城街道,113.182782,23.057529,4.4,False,,风景名胜
B0KK6ZF71J,文翰湖公园三期,自然景观,风景名胜;公园广场;公园,文翰湖公园,桂城街道,113.2411,23.012074,4.1,False,,风景名胜
B0FFIHRSOD,佛山南海金融公园,自然景观,风景名胜;公园广场;公园,桂城街道海八东路21号附近,桂城街道,113.158027,23.067941,4.1,False,,风景名胜
B02F508MSP,金雅轩世纪广场,自然景观,风景名胜;公园广场;城市广场,大沥镇铁村新区三路13号,大沥镇,113.117531,23.105473,4.4,False,,风景名胜
B02F511R77,厦边公园,自然景观,风景名胜;公园广场;公园,松岗工业大道与南厦边大道交汇处西170米,大沥镇,113.096969,23.130945,4.3,False,,风景名胜
B02F503CBT,凤东公园,自然景观,风景名胜;公园广场;公园,凤池东路29号,大沥镇,113.116327,23.11227,4.2,False,,风景名胜
B02F50UENU,沙溪公园,自然景观,风景名胜;公园广场;公园,公园路,里水镇,113.199386,23.125777,4.2,False,,风景名胜
B0I6USGK3P,桂城西龙湿地公园,自然景观,风景名胜;公园广场;公园,平胜大桥旁,桂城街道,113.170458,22.997311,4.2,False,,风景名胜
B02F507HD8,东约公园,自然景观,风景名胜;公园广场;公园,东约文明村大路与东约公园西路交叉口东140米,里水镇,113.162588,23.119297,4.3,False,,风景名胜
B02F504ZUG,沥城公园,自然景观,风景名胜;公园广场;公园,教育路与竹冠路交汇处东北角,里水镇,113.125757,23.114148,4.3,False,,风景名胜
B02F50WHLB,里东公园,自然景观,风景名胜;公园广场;公园,里水镇壮尤坊125号楼,里水镇,113.167701,23.200094,4.3,False,,风景名胜
B0LKVH49D7,罗村文化公园,自然景观,风景名胜;公园广场;公园,乐园二路3号,狮山镇,113.048319,23.057834,4.0,False,,风景名胜
B02F501Q4Z,南海文化公园,自然景观,风景名胜;公园广场;公园,桂城南新一路6号,桂城街道,113.145818,23.022913,4.2,False,,风景名胜
B02F507H3D,沙涌公园,自然景观,风景名胜;公园广场;公园,上沙涌市场斜对面,里水镇,113.166353,23.144604,4.2,False,,风景名胜
B0FFIZ6U2D,树蛙攀岩公园,自然景观,风景名胜;公园广场;公园,西樵镇樵岭国际4楼,西樵镇,112.986763,22.94174,3.7,False,,公园广场
B0FFHTLTR2,蛇龙公园,自然景观,风景名胜;公园广场;公园,金城西一路与金五西路交叉口西北60米,里水镇,113.136527,23.102406,3.8,False,,公园广场
B0FFGV600J,街心公园,自然景观,风景名胜;公园广场;公园,文化街与新兴路交叉口,里水镇,113.164622,23.197213,3.5,False,,公园广场
B0FFF0FM3G,沙口公园,自然景观,风景名胜;公园广场;公园,沙口下街沿江路,九江镇,113.036841,22.812617,4.1,False,,公园广场
B02F50WJ3D,展旗村公园,自然景观,风景名胜;公园广场;公园,大冲展旗村与大甘路交叉口东700米路北,里水镇,113.141738,23.152272,4.2,False,,公园广场
B0FFHS5224,罗村咏春体育公园文化广场,自然景观,风景名胜;公园广场;公园|风景名胜;公园广场;城市广场,狮山镇罗村大道南8号,狮山镇,113.037447,23.046482,4.3,True,咏春拳,公园广场
B0FFGA4GNF,康乐公园,自然景观,风景名胜;公园广场;公园,第五人民医院(城南二路南),大沥镇,113.115948,23.103781,4.0,False,,公园广场
B0FFFNNGQB,八甲公园,自然景观,风景名胜;公园广场;公园,丹灶镇金沙西联八甲村,丹灶镇,112.928844,23.091539,4.2,False,,公园广场
B02F50UO34,状元公园,自然景观,风景名胜;公园广场;公园,罗村街道北湖一路,狮山镇,113.050575,23.071443,4.1,False,,公园广场
B02F508PZ5,怡海公园,自然景观,风景名胜;公园广场;公园,怡海路华翠南路路口,桂城街道,113.163804,23.018378,4.2,False,,公园广场
B02F508R2T,怡翠公园,自然景观,风景名胜;公园广场;公园,华翠南路与桂平西路交汇处,桂城街道,113.165885,23.031027,4.0,False,,公园广场
B02F5038U7,草暖公园,自然景观,风景名胜;公园广场;公园,永安大道西7号,大沥镇,113.083404,23.223546,4.1,False,,公园广场
B0FFIA0LWM,里水消防科普公园,自然景观,风景名胜;公园广场;公园,里水镇河村社区石荣前路,里水镇,113.161401,23.181803,4.2,False,,公园广场
B02F507C6B,东华娱乐公园,自然景观,风景名胜;公园广场;公园,石碣村,大沥镇,113.087629,23.15203,4.2,False,,公园广场
B0FFIL2AV2,丹灶镇消防主题公园,自然景观,风景名胜;公园广场;公园,新裕路与文沙路交叉口西100米,丹灶镇,112.963875,23.05663,3.7,False,,公园广场
B02F506TPE,海景森林公园,自然景观,风景名胜;公园广场;公园,兴业西路,狮山镇,112.994714,23.100606,4.0,False,,公园广场
B02F507CO9,和顺公园,自然景观,风景名胜;公园广场;公园,里水镇沿江北路20号,里水镇,113.128989,23.251181,4.0,False,,公园广场
B0FFHEUVDU,北一公园,自然景观,风景名胜;公园广场;公园,胜塘村一六巷,大沥镇,113.117086,23.100087,3.9,False,,公园广场
B0FFHPRWQY,海逸社区公园,自然景观,风景名胜;公园广场;公园,桂城街道佛山一环与平西大道交汇处,桂城街道,113.17394,23.020635,4.0,False,,公园广场
B02F503XQB,探花公园,自然景观,风景名胜;公园广场;公园,九江镇汾江南路57号,九江镇,113.004524,22.84563,4.1,False,,公园广场
B0FFH46QG7,里水滨河公园,自然景观,风景名胜;公园广场;公园,北沙大道沙洛路20号北沙村沙洛工业区附近,里水镇,113.149599,23.19465,3.9,False,,公园广场
B02F50UTEC,和顺文体公园,自然景观,风景名胜;公园广场;公园,金华西路52号对面,里水镇,113.134553,23.257916,4.1,False,,公园广场
B02F50UERY,荷香园,自然景观,风景名胜;公园广场;公园,里水镇邓岗村,里水镇,113.156943,23.190332,4.1,False,,公园广场
B0FFF4TFPO,大沥镇体育休闲公园,自然景观,风景名胜;公园广场;公园,新城三路与禅炭路交叉口,大沥镇,113.109481,23.112083,4.1,False,,公园广场
B0FFF4T9UU,南海活力足球公园,自然景观,风景名胜;公园广场;公园,桂平路深涌段(田园美食旁),桂城街道,113.179048,23.030149,4.4,False,,公园广场
B0FFF4HXKP,莲藕塘公园,自然景观,风景名胜;公园广场;公园,西二路西末处,大沥镇,113.099416,23.08187,3.9,False,,公园广场
B0FFF4C8ES,东平水道河堤公园,自然景观,风景名胜;公园广场;公园,三山西大桥,桂城街道,113.217987,23.035818,4.2,False,,公园广场
B02F50X8YO,红棉公园,自然景观,风景名胜;公园广场;公园,太平西路13号,丹灶镇,113.014237,22.830973,4.0,False,,公园广场
B02F507H5G,伯奇公园,自然景观,风景名胜;公园广场;公园,大沥镇黄岐泌冲泌一新村,大沥镇,113.188089,23.142504,4.0,False,,公园广场
B02F5076IN,华光公园,自然景观,风景名胜;公园广场;公园,民康路27号,丹灶镇,113.022858,22.919068,4.2,False,,公园广场
B02F506168,新桂公园,自然景观,风景名胜;公园广场;公园,盐步镇河西大道,大沥镇,113.163942,23.081394,4.2,False,,公园广场
B0FFHS6AHL,璜溪公园,自然景观,风景名胜;公园广场;公园,博爱东路佛山市南海意博铝门制品厂东,大沥镇,113.093726,23.113581,3.6,False,,公园广场
B02F503O67,吕村公园,自然景观,风景名胜;公园广场;公园,,大沥镇,113.092255,23.234813,4.0,False,,公园广场
B0FFHEZA7J,罗田公园,自然景观,风景名胜;公园广场;公园,大沥镇奇槎社区,大沥镇,113.134436,23.078522,4.1,False,,公园广场
B02F5076AX,乐城公园,自然景观,风景名胜;公园广场;公园,狮山镇罗村镇鸿安街,狮山镇,113.099724,23.068413,4.0,False,,公园广场
B02F5076AE,大操场公园,自然景观,风景名胜;公园广场;公园,大沥镇谭边管理区南队村南队街三巷21号,大沥镇,113.072611,23.108009,4.3,False,,公园广场
B0FFJ8VLGS,党建公园,自然景观,风景名胜;公园广场;公园,环岛西路与东边大街十一巷交叉口东南80米,桂城街道,113.22021,23.027862,3.4,False,,公园广场
B0FFFOOKFE,江晖园,自然景观,风景名胜;公园广场;公园,石江幼儿园,丹灶镇,113.007734,22.90302,3.8,False,,公园广场
B0FFH3WRG4,李氏宗祠,自然景观,风景名胜;风景名胜;风景名胜,,大沥镇,113.090583,23.189766,3.5,False,,动植物园
B0FFH2VG24,参天宫圣庙,自然景观,风景名胜;风景名胜;寺庙道观,直涌路三村中心公园,桂城街道,113.156823,23.002109,3.7,False,,动植物园
B0FFH2AYLO,守顺吴公祠,自然景观,风景名胜;风景名胜;风景名胜,广云路与兴贤大道交叉口东北120米,大沥镇,113.077538,23.128037,3.6,False,,动植物园
B02F5077AW,太清宫,自然景观,风景名胜;风景名胜;寺庙道观,九江镇大谷市场,九江镇,113.043431,22.828437,3.7,False,,动植物园
B0FFG4RUQU,吴家大院,自然景观,风景名胜;风景名胜;风景名胜,九江镇人民路40号,九江镇,113.017758,22.833102,4.3,False,,动植物园
B0FFG4B8C9,南国桃园,自然景观,风景名胜;风景名胜;风景名胜,鸿基大道,大沥镇,113.103899,23.183076,4.7,False,,动植物园
B0FFG233RB,西樵山-听音湖,自然景观,风景名胜;风景名胜;风景名胜,锦湖大道7号,西樵镇,112.965527,22.937062,4.6,False,,动植物园
B0FFG0YUHE,南海观音寺,自然景观,风景名胜;风景名胜;寺庙道观,凤凰路,大沥镇,113.108714,23.175651,4.7,False,,动植物园
B0FFFR5A1V,清风亭,自然景观,风景名胜;风景名胜;风景名胜,桂城镇东约区东大街6号,桂城街道,113.144517,23.035218,4.1,False,,动植物园
B02F50YH2H,南海湾森林生态园,自然景观,风景名胜;风景名胜;风景名胜,西樵镇西岸庆云洞风景区管理处庆云大道尾,西樵镇,112.8746,22.851696,4.5,False,,动植物园
B02F50UTH5,叶问宗师馆,自然景观,风景名胜;风景名胜;纪念馆,狮山镇乐安西街21号,狮山镇,113.092699,23.063952,4.3,True,咏春拳,动植物园
B02F508N49,龙涛湾森林动感水城,自然景观,风景名胜;风景名胜;风景名胜,西岸幸福水库内,西樵镇,112.852826,22.854147,3.9,False,,动植物园
B02F5077T5,白云洞风景区,自然景观,风景名胜;风景名胜;风景名胜,西樵镇樵园路西樵山,西樵镇,112.962325,22.933011,4.2,False,,动植物园
B02F5076F0,西樵山风景名胜区,自然景观,风景名胜;风景名胜;国家级景点,西樵镇环山大道,西樵镇,112.976074,22.908475,4.7,False,,动植物园
B02F5076E8,西樵山南海观音,自然景观,风景名胜;风景名胜;风景名胜,环山大道,西樵镇,112.977134,22.92711,4.7,False,,动植物园
B02F506TYO,千灯湖公园,自然景观,风景名胜;风景名胜;省级景点,灯湖西路28号,桂城街道,113.146094,23.05361,4.7,False,,动植物园
B02F503R4G,中央电视台南海影视城,自然景观,风景名胜;风景名胜;国家级景点,狮山镇松岗影城大道,狮山镇,113.10825,23.186927,4.6,False,,动植物园
B02F50V1CO,妙音水月宫,自然景观,风景名胜;风景名胜;寺庙道观,新村大道西43号(玉器街地铁站A口步行470米),桂城街道,113.210747,23.024731,4.1,False,,动植物园
B0FFH3YDKA,孙氏宗祠,自然景观,风景名胜;风景名胜;寺庙道观,狮山镇石碣乐安村12巷,狮山镇,113.089135,23.150627,4.2,False,,动植物园
B0FFI45F68,刘氏大宗祠,自然景观,风景名胜;风景名胜;寺庙道观,官窑厚东商业街,狮山镇,113.074893,23.225188,4.1,False,,动植物园
B0FFHRPUYH,观音庙,自然景观,风景名胜;风景名胜;寺庙道观,篷涌大道三巷与冲头大街交叉口南60米,桂城街道,113.191867,23.026327,3.9,False,,动植物园
B0FFI2P9ZF,纯嘏冯公祠,自然景观,风景名胜;风景名胜;寺庙道观,高碧线与盐秀路交叉口东南220米,里水镇,113.208467,23.090853,3.4,False,,动植物园
B0FFHKW8UF,西樵戴氏大宗祠,自然景观,风景名胜;风景名胜;风景名胜,西樵镇大同二村戴家住宅区,西樵镇,112.991882,22.888527,3.9,False,,动植物园
B0FFH3ZP7O,谭氏大宗祠,自然景观,风景名胜;风景名胜;寺庙道观,联河路,里水镇,113.148352,23.093293,3.8,False,,动植物园
B0FFH3Z0A4,顺天颜公祠,自然景观,风景名胜;风景名胜;寺庙道观,大沥镇盐歩颜边村新街,大沥镇,113.152764,23.08841,3.6,False,,纪念馆
B0FFG3XAOW,刘氏大宗祠,自然景观,风景名胜;风景名胜;寺庙道观,狮山镇罗村白沙桥市场,狮山镇,113.018514,23.084699,3.6,False,,纪念馆
B0FFF9S8UN,白氏宗祠,自然景观,风景名胜;风景名胜;寺庙道观,狮山镇创业路海景森林公园附近,狮山镇,112.998178,23.091713,3.9,False,,纪念馆
B0FFH4A1Q4,二圣古庙,自然景观,风景名胜;风景名胜;寺庙道观,里水镇石二村,里水镇,113.127923,23.197143,3.7,False,,纪念馆
B0FFH47DDD,西窓陈宗祠,自然景观,风景名胜;风景名胜;寺庙道观,九潭村西三街,大沥镇,113.089597,23.095541,3.8,False,,纪念馆
B0FFH47A6W,福德祠,自然景观,风景名胜;风景名胜;寺庙道观,孔村南街与孔村东街交叉口南220米,里水镇,113.139763,23.232225,4.1,False,,纪念馆
B0FFH46CEW,谢氏宗祠,自然景观,风景名胜;风景名胜;寺庙道观,三区路与村前路交叉口南380米,里水镇,113.136127,23.213784,3.9,False,,纪念馆
B0FFFA8TI0,勉亭丁公祠,自然景观,风景名胜;风景名胜;寺庙道观,狮山镇汀圃新村大道,狮山镇,113.011422,23.206562,4.0,False,,纪念馆
B02F507C73,何氏宗祠,自然景观,风景名胜;风景名胜;寺庙道观,西樵镇联新13队,西樵镇,112.961625,22.967047,3.9,False,,纪念馆
B0FFJRRLA2,刘氏大宗祠,自然景观,风景名胜;风景名胜;寺庙道观,沙水村,丹灶镇,112.936145,23.04483,4.0,False,,纪念馆
B0FFI2K267,林氏宗祠,自然景观,风景名胜;风景名胜;寺庙道观,林氏大街北侧,里水镇,113.146761,23.234524,3.7,False,,纪念馆
B0FFHDP9AW,宗汉黄公祠,自然景观,风景名胜;风景名胜;寺庙道观,下柏工业大道与东环路交叉口南160米,狮山镇,113.022952,23.060219,3.9,False,,纪念馆
B0FFHDEI45,西溪张公祠,自然景观,风景名胜;风景名胜;寺庙道观,敦和大道6号,大沥镇,113.109578,23.122226,4.1,False,,纪念馆
B02F5115EQ,洪圣古庙,自然景观,风景名胜;风景名胜;寺庙道观,S8广佛肇高速与官窑立交交叉口西380米,狮山镇,113.014767,23.205924,3.9,False,,纪念馆
B0FFH42HYC,南海神庙,自然景观,风景名胜;风景名胜;寺庙道观,狮山镇松夏大道松夏工业园万石村,狮山镇,113.080252,23.180045,4.0,False,,纪念馆
B0FFGYME07,黄岐龙母庙,自然景观,风景名胜;风景名胜;寺庙道观,北环路与岐阳路交叉口西100米,大沥镇,113.195236,23.11989,4.2,True,龙母诞,纪念馆
B0FFG2AME7,西樵山风景名胜区-观音庙,自然景观,风景名胜;风景名胜;寺庙道观,西樵镇樵园路白云洞景区内,西樵镇,112.964449,22.933622,4.2,False,,纪念馆
B02F50WJ53,西华寺,自然景观,风景名胜;风景名胜;寺庙道观,西寺街13号,里水镇,113.201118,23.201747,4.3,False,,纪念馆
B0FFI2LEM1,应忠黄公祠,自然景观,风景名胜;风景名胜;寺庙道观,里水镇北沙新市场一街,里水镇,113.136345,23.184719,3.7,False,,纪念馆
B0FFHS7BN3,敏学黄公祠,自然景观,风景名胜;风景名胜;寺庙道观,江心北约街与横沙路交叉口西220米,里水镇,113.170293,23.119539,3.6,False,,纪念馆
B0FFH48ZUB,叶氏大宗祠,自然景观,风景名胜;风景名胜;寺庙道观,大沥水头蛇四村镇南街蛇龙牌坊附近,大沥镇,113.134857,23.100348,3.8,False,,纪念馆
B0FFH450EF,罗氏宗祠,自然景观,风景名胜;风景名胜;寺庙道观,前街二十一巷西北侧,丹灶镇,113.049258,23.038438,3.9,False,,纪念馆
B0FFH43KMH,谢氏大宗祠,自然景观,风景名胜;风景名胜;寺庙道观,谢家街与潘谢路交叉口北80米,大沥镇,113.110316,23.099698,4.0,False,,纪念馆
B0FFIVE54S,何氏宗祠,自然景观,风景名胜;风景名胜;寺庙道观,九江镇镇南乡石龙村,九江镇,112.924275,22.874755,3.6,False,,纪念馆
B0FFHZZ4BQ,德深李公祠,自然景观,风景名胜;风景名胜;寺庙道观,狮山镇璜溪村,狮山镇,113.094883,23.113772,4.0,False,,纪念馆
B0FFH4AQI7,陈氏宗祠,自然景观,风景名胜;风景名胜;寺庙道观,村前西排巷与东约村中环街交叉口西北约220米,里水镇,113.146747,23.131128,3.6,False,,纪念馆
B0FFG3QFIH,承源蔡公祠,自然景观,风景名胜;风景名胜;寺庙道观,上柏大道与佛下段交叉口东北120米,狮山镇,113.019886,23.072994,3.9,False,,纪念馆
B02F508S68,四世杨公祠,自然景观,风景名胜;风景名胜;寺庙道观,茶田大街与黄广线交叉口西北340米,狮山镇,113.007314,23.149449,3.8,False,,纪念馆
B02F508MWM,文武庙,自然景观,风景名胜;风景名胜;寺庙道观,村前大街与上朗段交叉口东南300米,丹灶镇,112.93146,22.990501,3.5,False,,纪念馆
B02F507C7C,李氏宗祠(太平圩),自然景观,风景名胜;风景名胜;寺庙道观,龙坑村1-69,西樵镇,112.90919,22.928719,3.8,False,,纪念馆
B02F507C71,村头村潘氏大宗祠,自然景观,风景名胜;风景名胜;寺庙道观,百业大道东与白业大道一横路交叉口东南240米,丹灶镇,112.920356,22.962487,3.8,False,,纪念馆
B0FFGLOVDP,平地观音庙,自然景观,风景名胜;风景名胜;寺庙道观,大沥镇平地村文明路2号(平地文化室对面),大沥镇,113.159531,23.116621,4.3,False,,纪念馆
B0FFIP7JHF,大王庙,自然景观,风景名胜;风景名胜;寺庙道观,平稳大街与平稳新村大道南交叉口北120米,桂城街道,113.170159,23.035637,3.8,False,,纪念馆
B0FFIAHGNX,曾氏宗祠,自然景观,风景名胜;风景名胜;寺庙道观,南海农商银行(九江镇南分理处)南侧70米,九江镇,112.923493,22.872061,3.7,False,,纪念馆
B0FFHS4RBJ,钟氏宗祠,自然景观,风景名胜;风景名胜;寺庙道观,沿江南路与下沙西街交叉口西南240米,丹灶镇,113.043204,23.03564,3.7,False,,纪念馆
B0FFH5GK94,天官祖祠,自然景观,风景名胜;风景名胜;寺庙道观,上北文体楼(二广高速广州支线南),大沥镇,113.075234,23.124501,3.7,False,,纪念馆
B0FFH44HIP,孙氏宗祠,自然景观,风景名胜;风景名胜;寺庙道观,水部村新街乐安水部村,大沥镇,113.096708,23.058921,3.8,False,,纪念馆
B0FFH3XXY4,陈氏大宗祠,自然景观,风景名胜;风景名胜;寺庙道观,蟹坑村颖水啟明二街18号,里水镇,113.196227,23.190165,4.0,False,,纪念馆
B0FFH2G924,陈氏凉茶,自然景观,风景名胜;风景名胜;寺庙道观|餐饮服务;冷饮店;冷饮店,大沥镇黄岐六联二联新村市场旁,大沥镇,113.178055,23.123969,3.7,False,,纪念馆
B0FFH1HDP2,纯阳古庙,自然景观,风景名胜;风景名胜;寺庙道观,许地大街与六村大道交叉口西北60米,桂城街道,113.19836,23.028539,3.7,False,,纪念馆
B0FFGR7ATC,五显祖庙,自然景观,风景名胜;风景名胜;寺庙道观,大沥镇盐步海傍北路六村文兴南142号,大沥镇,113.173743,23.085946,3.8,False,,纪念馆
B0FFG3QOHM,黄氏宗祠,自然景观,风景名胜;风景名胜;寺庙道观,桂城街道盐步虎榜新村鱼塘边,桂城街道,113.020784,23.056602,3.7,False,,纪念馆
B0FFG3QKJB,黄氏大宗祠,自然景观,风景名胜;风景名胜;寺庙道观,下柏吉祥路与下柏工业大道西交叉口北150米,狮山镇,113.021404,23.062956,3.6,False,,纪念馆
B02F50V1HK,佛子庙,自然景观,风景名胜;风景名胜;寺庙道观,西樵镇杏头村,西樵镇,112.966485,22.940454,3.4,False,,纪念馆
B02F507HE5,云溪侯公祠,自然景观,风景名胜;风景名胜;寺庙道观,里水镇下亨田村,里水镇,113.161531,23.159145,3.7,False,,纪念馆
B0FFIFPVM6,芦塘天主堂,自然景观,风景名胜;风景名胜;教堂,惠祥路旁,狮山镇,113.04374,23.069403,3.8,False,,历史建筑
B0FFG24UH1,基督教盐步堂,自然景观,风景名胜;风景名胜;教堂,大沥镇盐步环镇东路38号(永平村)对面,大沥镇,113.184026,23.080738,4.3,False,,历史建筑
B0FFJFZ9OZ,基督教罗行堂,自然景观,风景名胜;风景名胜;教堂,永兴街与三民街交叉口东北100米,丹灶镇,112.950524,23.028205,3.5,False,,历史建筑
B0G2RMJIB5,佛山市南海区基督教西樵堂,自然景观,风景名胜;风景名胜;教堂,西樵镇樵华中路21号,西樵镇,112.96695,22.960112,4.0,False,,历史建筑
B0FFK48YQW,天主堂,自然景观,风景名胜;风景名胜;教堂,天主堂(南乡路南),丹灶镇,113.018708,22.824724,3.5,False,,历史建筑
B0FFG38WVT,基督教鲤鱼沙堂,自然景观,风景名胜;风景名胜;教堂,金桂新村27号,桂城街道,113.129401,23.047482,4.2,False,,历史建筑
B0LK9ZASNL,和光合堂,自然景观,风景名胜;风景名胜;教堂,滘口大街20号,桂城街道,113.182937,23.056331,2.8,False,,历史建筑
B02F508KA7,九江双蒸博物馆,文化场馆,科教文化服务;博物馆;博物馆,惠民路12号,九江镇,113.026582,22.812498,4.4,True,九江双蒸酒,博物馆
B0FFF3NK66,南海博物馆,文化场馆,科教文化服务;博物馆;博物馆,西樵镇环山大道山南入口东侧,西樵镇,112.977738,22.907559,4.4,False,,博物馆
B0L2FU29P3,佛山市儿童博物馆,自然景观,科教文化服务;博物馆;博物馆,大沥镇太平大道43号,大沥镇,113.098671,23.104643,4.3,False,,博物馆
B0FFG4RUTW,九江侨乡博物馆,文化场馆,科教文化服务;博物馆;博物馆,九江镇人民路40号,九江镇,113.018104,22.833302,3.9,False,,博物馆
B0FFIR4D6W,广东大观博物馆,文化场馆,科教文化服务;博物馆;博物馆,灯湖西路28号,桂城街道,113.145968,23.049718,4.4,False,,博物馆
B0JGYHX5I0,佛山市岭南金融博物馆(新馆),自然景观,科教文化服务;博物馆;博物馆,灯湖东路26号,桂城街道,113.148703,23.064166,4.2,False,,博物馆
B0KRMZRLQY,佛山活体昆虫博物馆,自然景观,科教文化服务;博物馆;博物馆,西樵镇樵和路23号樵乐坊二座3楼(广东千古情对面),西樵镇,112.957381,22.942898,4.3,False,,博物馆
B0FFIVH0A1,康有为博物馆,文化场馆,科教文化服务;博物馆;博物馆,苏村,丹灶镇,112.902309,23.021688,4.1,False,,博物馆
B0FFL0EOCI,白沙乡情馆,自然景观,风景名胜;风景名胜;风景名胜|科教文化服务;博物馆;博物馆,白沙大街42号,里水镇,113.204028,23.132712,4.3,False,,博物馆
B0G25ZUGBR,MOSA梦所睡眠文化博物馆,文化场馆,科教文化服务;博物馆;博物馆,里水镇岗联布新大道12号,里水镇,113.102954,23.20792,4.1,False,,博物馆
B0J655HK2Q,世界口腔器材博物馆,文化场馆,科教文化服务;博物馆;博物馆,南海国家高新区新光源产业基地光明大道19号,丹灶镇,113.039392,23.040715,4.2,False,,博物馆
B0H2FOKZGV,罗村印象馆,文化场馆,科教文化服务;博物馆;博物馆,大厅街12号,狮山镇,113.044346,23.05381,4.1,False,,博物馆
B02F50ZEK8,石景宜博士博物馆,文化场馆,科教文化服务;博物馆;博物馆,西樵山国家森林公园南门入口处,西樵镇,112.977825,22.907625,4.1,False,,博物馆
B0I1G70ATO,古董老爷车博物馆,文化场馆,科教文化服务;博物馆;博物馆,时代骏雄世界名车中心4层,桂城街道,113.128685,23.069166,4.0,False,,博物馆
B0FFFELRU9,依黛丽内衣博物馆,文化场馆,科教文化服务;博物馆;博物馆,穗盐路河西工业区8号附近,里水镇,113.153072,23.083044,3.7,False,,博物馆
B0FFM4ZP9V,卓弘艺术空间,文化场馆,科教文化服务;博物馆;博物馆,奇腾路27号,丹灶镇,113.020021,22.832644,3.8,False,,博物馆
B0FFK7MIDU,依之妮历史博物馆,文化场馆,科教文化服务;博物馆;博物馆,佛山一环与下亨一路交叉口北60米,里水镇,113.164395,23.159369,3.7,False,,博物馆
B0LBL7OO2K,侯凯东茶文化博物馆,文化场馆,科教文化服务;博物馆;博物馆,大街五巷与下亨路交叉口西北140米,里水镇,113.160325,23.158522,3.8,False,,博物馆
B0K2297F57,佛山市南海区福厚博物馆,自然景观,科教文化服务;博物馆;博物馆,龙钩段与桂香坊交叉口南20米,丹灶镇,112.914431,22.985394,3.6,False,,博物馆
B0J3DUBWHL,国风非遗服饰研发馆,非遗体验,科教文化服务;博物馆;博物馆,南海大道北与海辉路交叉口北80米,桂城街道,113.141225,23.041125,3.7,False,,博物馆
B0K13C4JE8,六月西洋艺术博物馆,文化场馆,科教文化服务;博物馆;博物馆,海八东路38号丽致汇广场北门商场3号电梯上9层,桂城街道,113.151175,23.065425,3.5,False,,博物馆
B0H0TCOQBF,秦窗汉瓦中式铝建筑博物馆,文化场馆,科教文化服务;博物馆;博物馆,新城大道28号坚美商务大厦F5层,大沥镇,113.113175,23.105775,2.9,False,,博物馆
B0LG2RLOL8,小小博物馆(映月湖环宇城店),自然景观,科教文化服务;博物馆;博物馆,石龙南路6号映月湖环宇城F3层,桂城街道,113.187874,23.032529,2.9,False,,博物馆
B0JBLAT9EK,佛山大学仙溪校区北区博物馆,自然景观,科教文化服务;博物馆;博物馆,狮山镇仙溪水库西路佛山大学(仙溪校区北区),狮山镇,113.050394,23.136252,3.2,False,,博物馆
B0L1MMGLEA,锦玥国风美物馆,文化场馆,科教文化服务;博物馆;博物馆,桂城街道街道石肯大道刺绣街3号铺,桂城街道,113.159222,23.008448,3.7,False,,博物馆
B0FFG19F2Q,玄憬龙博物馆(暂停开放),文化场馆,科教文化服务;博物馆;博物馆,九江镇梅圳上北大道,九江镇,113.001763,22.857758,4.1,False,,博物馆
B0HUVC2IBY,佛山里水楚天黄科举匾额博物馆,自然景观,科教文化服务;博物馆;博物馆,沿江北路与沿江北路二巷交叉口西南180米,里水镇,113.130839,23.251855,3.7,False,,博物馆
B0K14AWT1B,西樵山美术馆(有为馆),自然景观,科教文化服务;展览馆;展览馆,锦湖大道辅路与樵山大道交叉口西南140米,西樵镇,112.956807,22.936696,4.4,False,,展览馆
B0K14SWHYU,叠滘水乡村史文化展馆,文化场馆,科教文化服务;展览馆;展览馆,南一路与海七路交叉口西南340米,桂城街道,113.133235,23.061037,4.3,False,,展览馆
B0IAHC7QWG,大沥革命展示馆,文化场馆,科教文化服务;展览馆;展览馆,大沥沥苑路7号大沥公园内(北侧),大沥镇,113.122744,23.112307,4.1,False,,展览馆
B0FFMDFZFN,南山艺术馆,自然景观,科教文化服务;展览馆;展览馆,西樵大同显岗富贤村樵贤东街一巷一号,西樵镇,112.991685,22.913505,4.5,False,,展览馆
B0JGFHM5JH,南海风物方志馆,文化场馆,科教文化服务;展览馆;展览馆,佛平二路礌岗公园魁星阁,桂城街道,113.146299,23.040527,3.9,False,,展览馆
B0L0LM8G95,有为馆,文化场馆,科教文化服务;展览馆;展览馆,锦湖大道10号,西樵镇,112.956807,22.936696,3.9,False,,展览馆
B0FFFVEODM,中国蒙娜丽莎文化艺术馆,文化场馆,科教文化服务;展览馆;展览馆,363省道蒙娜丽莎集团内,西樵镇,112.933487,22.92389,4.4,False,,展览馆
B0FFMDWS3W,南海区丹灶镇罗行村史馆,文化场馆,科教文化服务;展览馆;展览馆,中山下街2号,丹灶镇,112.949384,23.027692,4.3,False,,展览馆
B0JBP94OUD,农耕文化展览馆,文化场馆,科教文化服务;展览馆;展览馆,盐赤线与村前路交叉口东北120米,里水镇,113.137466,23.218155,4.2,False,,展览馆
B0FFKNI4IR,中共南三花工委史迹展览,文化场馆,科教文化服务;展览馆;展览馆,沈五五巷1号,里水镇,113.141159,23.193073,3.8,False,,展览馆
B0FFLHZ51O,仙岗村村史馆,文化场馆,科教文化服务;展览馆;展览馆,桂丹西路136号,丹灶镇,112.886543,23.040686,3.6,False,,展览馆
B0FFL1ACKN,小镇规划馆,文化场馆,科教文化服务;展览馆;展览馆,滨江东路与甘河路交叉口北40米,里水镇,113.162732,23.191382,4.3,False,,展览馆
B0G0ZXZF9H,宝墨堂书法艺术中心,文化场馆,购物服务;专卖店;古玩字画店|科教文化服务;展览馆;展览馆,狮山镇桂和公路1号,狮山镇,113.117315,23.16822,4.2,False,,展览馆
B0IR4Z1C61,铁村革命展示馆,文化场馆,科教文化服务;展览馆;展览馆,大沥镇钟边社区铁村内,大沥镇,113.114607,23.099891,4.2,False,,展览馆
B0KKNM4XPO,南海区袜子文化展览馆,文化场馆,科教文化服务;展览馆;展览馆,大步路s15号,里水镇,113.16195,23.134504,4.3,False,,展览馆
B0FFGX1NGJ,奥帝艺术馆,文化场馆,科教文化服务;展览馆;展览馆,南海奥帝精细化工有限公司北门旁,里水镇,113.171548,23.192845,4.2,False,,展览馆
B0KUNRNHK1,南海龙堂文化展,文化场馆,科教文化服务;展览馆;展览馆,叠滘四路15号,桂城街道,113.12963,23.059774,3.8,False,,展览馆
B0FFFEV83L,木必居古典艺术馆,文化场馆,科教文化服务;展览馆;展览馆,文林线与港口南路交叉口西220米,桂城街道,113.245293,22.999142,4.0,False,,展览馆
B0I61H7YAD,邹伯奇展示馆,文化场馆,科教文化服务;展览馆;展览馆,鄱阳路与黄海路交叉口东60米,里水镇,113.187105,23.116461,3.6,False,,展览馆
B0KUFC98OW,儒林历史文化陈列馆,文化场馆,科教文化服务;展览馆;展览馆,万寿街25号,丹灶镇,113.013385,22.831101,3.6,False,,展览馆
B0FFKJMPAZ,桂城文化展馆,文化场馆,科教文化服务;展览馆;展览馆,康乐街与西河大街交叉口西50米,桂城街道,113.207725,23.0303,3.3,False,,展览馆
B0FFFSD8UG,康有为书法艺术院,文化场馆,科教文化服务;展览馆;展览馆,丹灶镇仙湖渡假区养生路,丹灶镇,112.887342,23.049367,3.9,False,,展览馆
B0MB6MND7R,华芳影像艺术空间,文化场馆,科教文化服务;展览馆;展览馆,深海路22号越秀星汇瀚府西区南门6栋1层102-104铺,桂城街道,113.178065,23.026578,3.7,False,,展览馆
B0KD26ZIQD,佛山南海区里水镇收藏馆,自然景观,科教文化服务;展览馆;展览馆,工业大道南8号,里水镇,113.139371,23.223518,4.0,False,,展览馆
B0MBHGHBI9,招大白坭坑炮楼陈列馆,文化场馆,科教文化服务;展览馆;展览馆,兴白线与科达北路交叉口西北120米,狮山镇,113.030875,23.105125,2.3,False,,展览馆
B0LBS5UVDO,佛山市科普教育基地(细胞科技科普展馆),自然景观,科教文化服务;展览馆;展览馆,花地大道南与南港立交桥交叉口西北100米,桂城街道,113.213595,23.041318,3.3,False,,展览馆
B0LKOAFX2U,良登村史馆,文化场馆,科教文化服务;展览馆;展览馆,樵良线与官良段交叉口东南80米,丹灶镇,112.914302,23.018804,2.9,False,,展览馆
B0JBLAMHW4,佛山科学技术学院仙溪校区北区校史馆,自然景观,科教文化服务;展览馆;展览馆,狮山镇仙溪水库西路佛山大学(仙溪校区北区),狮山镇,113.050469,23.136256,3.7,False,,展览馆
B0LKOAFWPQ,简村社区村史馆,文化场馆,科教文化服务;展览馆;展览馆,爱简线与樵高路交叉口西北160米,狮山镇,112.953372,22.94472,1.9,False,,展览馆
B0LD39P3J8,璜溪村艺术展览馆,文化场馆,科教文化服务;展览馆;展览馆,富强北路与博爱东路交叉口东北280米,大沥镇,113.095073,23.114606,3.5,False,,展览馆
B0FFM9MAH2,南海国际会议中心,其他,科教文化服务;会展中心;会展中心,兴海广场2座5楼,里水镇,113.144657,23.109703,0,False,,图书馆
B0FFKZDQA6,樵山文化中心,自然景观,科教文化服务;会展中心;会展中心,樵园路25号,西樵镇,112.95997,22.934058,4.5,False,,图书馆
B0FFGCIABE,涌口村会堂,其他,科教文化服务;会展中心;会展中心,桂城街道平州,桂城街道,113.185886,23.047384,0,False,,图书馆
B0FFGOD3B3,孔溪会堂,其他,科教文化服务;会展中心;会展中心,桂城街道平洲夏东,桂城街道,113.188497,23.042783,0,False,,图书馆
B0FFMDQNRP,西冯会堂,其他,科教文化服务;会展中心;会展中心,西冯村村前街与西新线交叉口西北180米,狮山镇,112.938504,23.081936,0,False,,图书馆
B0FFME8A3Z,广佛芯未来馆,其他,科教文化服务;会展中心;会展中心,南海里水幸福大道,里水镇,113.113866,23.266574,0,False,,图书馆
B0FFHX8CR5,大明宫玉石珠宝国际会展中心,其他,科教文化服务;会展中心;会展中心,大益西路玉廉文化广场(东南角),桂城街道,113.210534,23.018194,0,False,,图书馆
B0KG37NVRH,沈村人民会场,其他,科教文化服务;会展中心;会展中心,里水镇北沙村委会沈村村民小组西北侧,里水镇,113.141918,23.190991,0,False,,图书馆
B0FFH0VS6G,黄岐五金城会展中心,其他,科教文化服务;会展中心;会展中心,大沥镇,大沥镇,113.17685,23.108375,0,False,,图书馆
B0I3TZ8BA6,东南会场,其他,科教文化服务;会展中心;会展中心,展业西路二街与展业路交叉口北500米,狮山镇,112.981038,23.107594,0,False,,图书馆
B0FFFYPDFT,南海迎宾馆-会议中心,其他,科教文化服务;会展中心;会展中心,天佑四路南海迎宾馆,桂城街道,113.144687,23.029646,0,False,,图书馆
B0FFFE9TGU,名都大酒店-会议室,其他,科教文化服务;会展中心;会展中心,盐步广佛路平地路段南68号名都大酒店5层,大沥镇,113.15253,23.10846,0,False,,图书馆
B0FFKCKKR4,维也纳国际酒店(佛山南海和顺店)-会议室,自然景观,科教文化服务;会展中心;会展中心,花园大道与和顺花园五街交叉口东南60米,里水镇,113.13986,23.248708,0,False,,图书馆
B02F50UYBC,南国桃园高球度假山庄国际会议中心,自然景观,科教文化服务;会展中心;会展中心,碧湖东路与碧香路交叉口西北380米,大沥镇,113.098673,23.173735,0,False,,图书馆
B0M63C9O5G,威德利国际酒店会议中心,其他,科教文化服务;会展中心;会展中心,和横线与和大线交叉口东南80米,里水镇,113.144225,23.237025,0,False,,图书馆
B0L0F98KN6,兴海天地会议厅,其他,科教文化服务;会展中心;会展中心,岭南路与广佛路交叉口北220米,里水镇,113.146325,23.109425,0,False,,图书馆
B0GKU5HILM,无界艺术馆,文化场馆,科教文化服务;美术馆;美术馆,桂澜中路中海环宇城2楼先行图书旁,桂城街道,113.156725,23.043275,3.7,False,,科技馆
B0FFGR7SES,南新美术馆,文化场馆,科教文化服务;美术馆;美术馆,十一街区南门旁,桂城街道,113.145798,23.025604,4.4,False,,科技馆
B0JBAXJBY3,华天鹤美术馆,文化场馆,科教文化服务;美术馆;美术馆,桂城街道夏南一社区环溪村轩奇里1号之三,桂城街道,113.174696,23.046658,4.4,False,,科技馆
B0JU576YWA,映·美术馆,文化场馆,科教文化服务;美术馆;美术馆,石龙南路6号映月湖环宇城F4层,桂城街道,113.187381,23.033381,3.6,False,,科技馆
B0IA37YH6J,卓艺美术(桂城校区),文化场馆,科教文化服务;美术馆;美术馆,七街区东门旁,桂城街道,113.148544,23.024654,4.4,False,,科技馆
B0H2CCU53J,有荷堂美术馆,文化场馆,科教文化服务;美术馆;美术馆,后岗豪华电梯公寓东南侧100米,狮山镇,112.896066,23.050745,4.5,False,,科技馆
B0KUOUVBZ3,钧灏艺术馆,文化场馆,科教文化服务;美术馆;美术馆,狮山镇博爱中路68号长华国际商业中心南商1座1层060商铺,狮山镇,112.999968,23.116976,4.0,False,,科技馆
B0IRCH7XVO,佛山市南海区枫丹美术馆,自然景观,科教文化服务;美术馆;美术馆,松岗南国桃园枫丹白鹭酒店宿舍区综合楼,大沥镇,113.090668,23.178973,4.0,False,,科技馆
B0J1AD3BA8,佛山自觉艺术馆,自然景观,科教文化服务;美术馆;美术馆,桂城南舜圆方广场综合楼2号门二楼,桂城街道,113.169428,23.023005,4.1,False,,科技馆
B0LU2ZUO4B,灏迈艺术馆,文化场馆,科教文化服务;美术馆;美术馆,桂和公路与桂和路交叉口东北280米,里水镇,113.134722,23.139855,3.9,False,,科技馆
B0FFMCA0FR,小神笔美术馆,文化场馆,科教文化服务;美术馆;美术馆,合生君景湾东1门西北270米,里水镇,113.171234,23.136301,3.8,False,,科技馆
B0KROLTO88,艺阡美术馆,文化场馆,科教文化服务;美术馆;美术馆,桂城三山保利西雅图二期130和131号铺,桂城街道,113.249302,23.035531,2.9,False,,科技馆
B0JGN7WGFQ,乐怡美术馆,文化场馆,科教文化服务;美术馆;美术馆,简平路与庆怡路交叉口北120米,桂城街道,113.169068,23.020452,3.1,False,,科技馆
B0J0X97FI5,鸿扬艺术馆,文化场馆,科教文化服务;美术馆;美术馆,爱依服商贸有限公司西南门旁,桂城街道,113.215027,23.03664,3.6,False,,科技馆
B0KUFC9GCL,陈洲亲子美术馆,文化场馆,科教文化服务;美术馆;美术馆,丹灶镇仙岗村圣堂街直巷8号,丹灶镇,112.885169,23.04038,3.9,False,,科技馆
B0KUYATVDR,清雅艺术馆,文化场馆,科教文化服务;美术馆;美术馆,桂和公路1号,大沥镇,113.117307,23.168256,3.7,False,,科技馆
B0I0GRG03C,阳晖茶艺馆,文化场馆,科教文化服务;美术馆;美术馆,阳晖园,丹灶镇,112.971782,22.963733,3.1,False,,科技馆
B0I6VZ5I9Z,悦艺美术馆(暂停开放),文化场馆,科教文化服务;美术馆;美术馆,广东省佛山市南海区天安时代大厦5期B座7层709号,桂城街道,113.166534,23.019663,3.6,False,,科技馆
B0LKBMSFQ7,佛山市南海区图书馆,自然景观,科教文化服务;图书馆;图书馆,灯湖西路25号,桂城街道,113.143379,23.053251,0,False,,文化宫
B0FFF3G3S5,灯湖小学,自然景观,科教文化服务;图书馆;图书馆,海六路33号,桂城街道,113.15354,23.058959,0,False,,文化宫
B0J377W8OR,南海区中医药图书馆(桂城·沁馆站),文化场馆,科教文化服务;图书馆;图书馆,中西医结合医院西侧(桂城南五路20号)西2门旁,桂城街道,113.142232,23.046252,0,False,,文化宫
B0FFH3X3ZS,桂城图书馆,文化场馆,科教文化服务;图书馆;图书馆,永安路14号附近,桂城街道,113.208107,23.029956,0,False,,文化宫
B0FFIGBL5B,里水图书馆(梦汇尚城店),文化场馆,科教文化服务;图书馆;图书馆,里水镇新兴路6号文化中心梦汇尚城7层,里水镇,113.164624,23.196829,0,False,,文化宫
B02F5078UY,狮山图书馆,自然景观,科教文化服务;图书馆;图书馆,小塘兴祥路狮山文化楼一楼,狮山镇,112.982602,23.089445,0,False,,文化宫
B0FFHIJJX2,读书驿站(桂城南图站),文化场馆,科教文化服务;图书馆;图书馆,天佑三路南海图书馆106号,桂城街道,113.14095,23.028682,0,False,,文化宫
B02F50XHJX,广东轻工职业技术学院(南海校区北区)图书馆,文化场馆,科教文化服务;图书馆;图书馆,狮山南海软件科技园广东轻工职业技术大学(南海校区北区),狮山镇,113.033048,23.161598,0,False,,文化宫
B0FFI6RJ3L,读书驿站(桂城西约小学站),文化场馆,科教文化服务;图书馆;图书馆,海一路49号,桂城街道,113.142902,23.042772,0,False,,文化宫
B0GRCLEL8Z,读书驿站(桂城千灯湖党群服务中心站),自然景观,科教文化服务;图书馆;图书馆,佛山市南海区桂城街道海六路33号之二千灯湖党群服务中心一楼,桂城街道,113.152104,23.058931,0,False,,文化宫
B0H6RU8FSF,读书驿站(桂城三鸣台站),文化场馆,科教文化服务;图书馆;图书馆,桂城街道三山森林公园中心岗山顶,桂城街道,113.228191,23.030316,0,False,,文化宫
B02F50UZCU,华南师范大学(佛山校区南海校园)图书馆,自然景观,科教文化服务;图书馆;图书馆,南海科技园狮山镇华南师范大学南海校区,狮山镇,113.026773,23.146194,0,False,,文化宫
B0K6FSJBMU,读书驿站(狮山白沙桥站),自然景观,科教文化服务;图书馆;图书馆,狮山镇招沙社区卫生服务站附近,狮山镇,113.016423,23.084776,0,False,,文化宫
B02F50UQQV,罗村实验小学-罗村图书馆,文化场馆,科教文化服务;图书馆;图书馆,狮山镇北湖一路10号罗村实验学校,狮山镇,113.051196,23.06963,0,False,,文化宫
B0FFLHZ1R4,读书驿站(桂城金融城站),文化场馆,科教文化服务;图书馆;图书馆,桂澜北路与海八东路辅路交叉口东南80米,桂城街道,113.155928,23.066308,0,False,,文化宫
B0IRLUHPQM,南海区里水镇北大步图书馆,文化场馆,科教文化服务;图书馆;图书馆,大步村北大步174号,里水镇,113.157744,23.13545,0,False,,文化宫
B0IKVHF7NQ,读书驿站(桂城瀚天科技城站),文化场馆,科教文化服务;图书馆;图书馆,瀚天科技城5号楼大堂,桂城街道,113.174967,23.027768,0,False,,文化宫
B0FFHZPQ5U,读书驿站(桂城慧德站),文化场馆,科教文化服务;图书馆;图书馆,桂城平洲培德路5号,桂城街道,113.195927,23.034517,0,False,,文化宫
B0FFJRY0AI,读书驿站(桂城·翠颐社区站),文化场馆,科教文化服务;图书馆;图书馆,桂平西路3号翠颐社区党群服务中心1层,桂城街道,113.163086,23.033113,0,False,,文化宫
B0H6R58TX6,读书驿站大沥大镇社区站,文化场馆,科教文化服务;图书馆;图书馆,大沥镇大镇民建村东桥旁,大沥镇,113.121211,23.082048,0,False,,文化宫
B0FFHWKCBE,读书驿站(桂城花苑广场站),文化场馆,科教文化服务;图书馆;图书馆,桂城街道南桂东路60号,桂城街道,113.153225,23.032025,0,False,,文化宫
B0FFJY4ERE,佛山大学仙溪校区北区图书馆,自然景观,科教文化服务;图书馆;图书馆,狮山镇仙溪水库西路佛山大学(仙溪校区北区),狮山镇,113.054701,23.139222,0,False,,文化宫
B0FFI1XRQ5,读书驿站(大沥凤池社区站),文化场馆,科教文化服务;图书馆;图书馆,风池社区凤东公园后侧,大沥镇,113.115833,23.112711,0,False,,文化宫
B0J0RCFF4X,读书驿站(狮山狮城站),自然景观,科教文化服务;图书馆;图书馆,狮山镇俊景中路35号前(狮城居委旁),狮山镇,113.007921,23.126267,0,False,,文化宫
B0FFG899C6,联星小学阅览室,文化场馆,科教文化服务;图书馆;图书馆,狮山镇罗村镇联星大道,狮山镇,113.093852,23.059989,0,False,,文化宫
B0G3M70LF7,骑行驿站(儒林书屋),文化场馆,购物服务;专卖店;书店|科教文化服务;图书馆;图书馆|生活服务;生活服务场所;生活服务场所,里水镇鲁岗村九社大街,里水镇,113.154247,23.270538,0,False,,文化宫
B0FFIVGHCN,读书驿站(狮山罗北村站),自然景观,科教文化服务;图书馆;图书馆,罗北村接龙街1号院内,狮山镇,113.04237,23.0569,0,False,,文化宫
B0L37RMBLK,读书驿站(大沥联滘站),文化场馆,科教文化服务;图书馆;图书馆,联窖路与桂和公路辅路交叉口西160米,大沥镇,113.138708,23.118647,0,False,,文化宫
B0JRHUL8YV,读书驿站(里水石塘站),文化场馆,科教文化服务;图书馆;图书馆,大马头南三街8号,里水镇,113.100375,23.27451,0,False,,文化宫
B0IKSU180D,读书驿站(里水镇党群服务中心站),文化场馆,科教文化服务;图书馆;图书馆,里广路49号里水镇党群服务中心旁,里水镇,113.201251,23.181774,0,False,,文化宫
B02F511USS,金宁社区图书馆,文化场馆,科教文化服务;图书馆;图书馆,丹灶镇金兴路7号,丹灶镇,112.960616,23.063207,0,False,,文化宫
B0I0NU9IUF,读书驿站(西樵社区站),文化场馆,科教文化服务;图书馆;图书馆,樵金路与樵高路交叉口南140米,西樵镇,112.984289,22.948359,0,False,,文化宫
B0HGVRSB8R,读书驿站(狮山广佛新世界站),自然景观,科教文化服务;图书馆;图书馆,广佛新世界·雍怡雅居西北侧260米,狮山镇,113.054009,23.102818,0,False,,文化宫
B0FFF2DOKQ,广东东软学院图书馆,文化场馆,科教文化服务;图书馆;图书馆,信息大道南附近,狮山镇,113.023384,23.13659,0,False,,文化宫
B0L0BZTJY7,读书驿站(丹灶目闻阅野集站),文化场馆,科教文化服务;图书馆;图书馆,中山下街与罗西路交叉口西北60米,丹灶镇,112.949837,23.02654,0,False,,文化宫
B0FFI1VT6U,读书驿站(丹灶文化广场站),文化场馆,科教文化服务;图书馆;图书馆,丹灶镇文化广场内(东侧),丹灶镇,112.9203,23.04082,0,False,,文化宫
B0I0Z5C8TB,读书驿站(狮山石澎站),自然景观,科教文化服务;图书馆;图书馆,石澎大道1号,狮山镇,113.041325,23.217075,0,False,,文化宫
B0IRZD4JGC,读书驿站(大沥横江站),文化场馆,科教文化服务;图书馆;图书馆,横江文体楼西北50米,大沥镇,113.169632,23.111535,0,False,,文化宫
B0FFI6RMEP,读书驿站(里水合生君景湾站),文化场馆,科教文化服务;图书馆;图书馆|生活服务;生活服务场所;生活服务场所,里水镇合生君景湾小区帝瀚庭8栋115,里水镇,113.172115,23.13473,0,False,,文化宫
B0LU7SXD14,月光读行社(桂城图书馆服务点),文化场馆,科教文化服务;图书馆;图书馆,夏平路与东信北路交叉口东220米,桂城街道,113.197688,23.041196,0,False,,文化宫
B0I0ZS7OOF,读书驿站(狮山官窑社区站),自然景观,科教文化服务;图书馆;图书馆,石市路南1号,狮山镇,113.069002,23.225114,0,False,,文化宫
B0G1TRW96B,读书驿站(大沥太平一览站),文化场馆,科教文化服务;图书馆;图书馆,大沥镇太平村太平大道34号,大沥镇,113.099948,23.104039,0,False,,文化宫
B0G1OHFR9Z,读书驿站(西樵百西社区站),文化场馆,科教文化服务;图书馆;图书馆,西樵镇百西村村委会门口,西樵镇,112.919749,22.95718,0,False,,文化宫
B0FFK2F42C,广东环境保护工程职业学院图书馆,文化场馆,科教文化服务;图书馆;图书馆,桂丹西路98号广东环境保护工程职业学院,丹灶镇,112.909175,23.045425,0,False,,文化宫
B0I39S10HJ,读书驿站(丹灶金宁社区),文化场馆,科教文化服务;图书馆;图书馆,金兴路7号2座,丹灶镇,112.96063,23.063269,0,False,,文化宫
B0FFI6SFUR,读书驿站(里水小学站),文化场馆,科教文化服务;图书馆;图书馆,里水镇新兴路56号,里水镇,113.161775,23.201314,0,False,,文化宫
B0FFI1XCA4,读书驿站(大沥沥兴社区站),文化场馆,科教文化服务;图书馆;图书馆,大沥镇沥兴社区服务中心旁,大沥镇,113.120952,23.11487,0,False,,文化宫
B0KDJHC8EZ,读书驿站(里水建星站),文化场馆,科教文化服务;图书馆;图书馆,建上线与上塱村大街交叉口北220米,里水镇,113.12494,23.279558,0,False,,文化宫
B0FFI6EN7S,读书驿站(桂城夏南小学站),文化场馆,科教文化服务;图书馆;图书馆,夏南一社区居民委员会附近,桂城街道,113.178185,23.043659,0,False,,文化宫
B0FFKNK7CZ,读书驿站(狮山陈洞站),自然景观,科教文化服务;图书馆;图书馆,兴业北路陈洞公寓附近,狮山镇,112.982777,23.168363,0,False,,文化宫
B0K06DAAIT,读书驿站,文化场馆,科教文化服务;图书馆;图书馆,里水镇北沙沈村村委大街2号之一,里水镇,113.142123,23.191062,0,False,,文化宫
B0KDCAMYJ1,读书驿站(穆院站),文化场馆,科教文化服务;图书馆;图书馆,穆院幼儿园北门旁,狮山镇,113.020051,23.124196,0,False,,文化宫
B0FFI182XO,读书驿站(狮山塘中站),自然景观,科教文化服务;图书馆;图书馆,狮山小塘上林苑升平广场前,狮山镇,112.986466,23.087471,0,False,,文化宫
B0IUUSQ9S3,读书驿站(里水贤僚站),文化场馆,科教文化服务;图书馆;图书馆,建设二街2号,里水镇,113.172415,23.259954,0,False,,文化宫
B0L37KKTHT,读书驿站(西樵七星站),文化场馆,科教文化服务;图书馆;图书馆,新桐大道4号,西樵镇,112.987725,22.891075,0,False,,文化宫
B0IGBLPU72,读书驿站(九江海寿岛站),自然景观,科教文化服务;图书馆;图书馆,江滨路1号,九江镇,112.986063,22.815602,0,False,,文化宫
B0KDHHDMTN,读书驿站(狮山石泉站),自然景观,科教文化服务;图书馆;图书馆,桃花巷3号,狮山镇,113.110719,23.190968,0,False,,文化宫
B0HR4SXR8R,勒东图书馆,文化场馆,科教文化服务;图书馆;图书馆,大沥奇槎勒竹口,大沥镇,113.139431,23.082175,0,False,,文化宫
B0L1T73SAE,新华乐育Ai书房,文化场馆,科教文化服务;图书馆;图书馆,南海大道北75号南海印象汇4F层(桂城地铁站D2口旁),桂城街道,113.140407,23.032945,3.5,False,,文化宫
B0IUCSUAYF,招大社区读书驿站,文化场馆,科教文化服务;图书馆;图书馆,科技东路42号,狮山镇,113.035933,23.097504,0,False,,文化宫
B0FFITK4C6,读书驿站(狮山东湖林语站),自然景观,科教文化服务;图书馆;图书馆,狮山松岗禅炭路901号保利东语花园35栋2梯架空层,狮山镇,113.078775,23.189775,0,False,,文化宫
B0FFICXFHE,读书驿站(狮山石碣小学站),自然景观,科教文化服务;图书馆;图书馆,松岗工业大道北石碣小学侧,狮山镇,113.0933,23.15226,0,False,,文化宫
B0JUVKX3KF,读书驿站(里水·麻奢站),文化场馆,科教文化服务;图书馆;图书馆,里官路59号,里水镇,113.12055,23.213634,3.8,False,,文化宫
B0FFI6O504,读书驿站(大沥直街社区站),文化场馆,科教文化服务;图书馆;图书馆|生活服务;生活服务场所;生活服务场所,大沥镇直街12号,大沥镇,113.177197,23.087973,0,False,,文化宫
B0FFHZ30HB,读书驿站(桂城中海锦城国际花园站),文化场馆,科教文化服务;图书馆;图书馆,海八东路1号灯湖社区中海锦城国际花园内,桂城街道,113.175019,23.067753,0,False,,文化宫
B0IU5SXGUG,读书驿站(里水共同站),文化场馆,科教文化服务;图书馆;图书馆,东街七巷9号,里水镇,113.135626,23.241543,0,False,,文化宫
B0FFGX2WOZ,九江自助图书馆(儒林东路)(暂停营业),文化场馆,科教文化服务;图书馆;图书馆,九江镇人民路32号吴家大院F座1层,九江镇,113.018055,22.833025,0,False,,文化宫
B0FFH2EXY3,读书驿站(西樵登山大道站),自然景观,科教文化服务;图书馆;图书馆,西樵镇登山大道1号公共资源交易中心旁,西樵镇,112.986942,22.938975,0,False,,文化宫
B0GR4RHI1B,罗村镇上柏村益智图书室,文化场馆,科教文化服务;图书馆;图书馆,兰边大街兰边村对面,狮山镇,113.018821,23.071186,0,False,,文化宫
B0J1HS5PDS,读书驿站(狮山联星站),自然景观,科教文化服务;图书馆;图书馆,,狮山镇,113.093896,23.059843,0,False,,文化宫
B0I2LA159S,读书驿站(里水流潮社区站),文化场馆,科教文化服务;图书馆;图书馆,流潮大道7号,里水镇,113.180507,23.184238,0,False,,文化宫
B0FFI1XR1Z,读书驿站(大沥岐城社区站),文化场馆,科教文化服务;图书馆;图书馆,大沥镇岐西路49号,大沥镇,113.190054,23.114768,0,False,,文化宫
B0IUUSQHM9,读书驿站(大沥沥桂站),文化场馆,科教文化服务;图书馆;图书馆,金二东路3号,大沥镇,113.139484,23.104231,0,False,,文化宫
B0FFI1XCA2,读书驿站(里水金溪站),文化场馆,科教文化服务;图书馆;图书馆,金华西路56号,里水镇,113.134072,23.258279,0,False,,文化宫
B0FFID3XX9,读书驿站(桂城东二小学站),文化场馆,科教文化服务;图书馆;图书馆,南新二路与桂澜路交叉口东150米,桂城街道,113.1559,23.025834,0,False,,文化宫
B0IUUSSJB2,读书驿站(里水得胜站),文化场馆,科教文化服务;图书馆;图书馆,横七路6号,里水镇,113.156293,23.215102,0,False,,文化宫
B0FFI4ANTH,读书驿站(狮山官窑汇利广场站),自然景观,科教文化服务;图书馆;图书馆,狮山镇官窑江利广场停车场,狮山镇,113.074266,23.223617,0,False,,文化宫
B0FFI21YR2,读书驿站(大沥岐阳社区站),文化场馆,科教文化服务;图书馆;图书馆,黄岐公园南园南门旁,大沥镇,113.193708,23.119517,0,False,,文化宫
B0FFJZ52A7,读书驿站(大沥平地社区站),文化场馆,科教文化服务;图书馆;图书馆,大沥镇德政大街20号平地公园内(东南角),大沥镇,113.158141,23.116608,0,False,,文化宫
B0I02SE304,读书驿站(大沥泌冲站),文化场馆,科教文化服务;图书馆;图书馆,伯奇路与大巷街交叉口西南140米,大沥镇,113.187198,23.139251,0,False,,文化宫
B0FFI20TRM,读书驿站(九江儒林社区站),文化场馆,科教文化服务;图书馆;图书馆,九江镇儒林社区活动中心,九江镇,113.014423,22.830613,0,False,,文化宫
B0I1FUQT6V,读书驿站(大石社区站),文化场馆,科教文化服务;图书馆;图书馆,里水市场大道58号,里水镇,113.129757,23.197214,0,False,,文化宫
B0I0KH0QKZ,读书驿站(狮山·孝德湖站),自然景观,科教文化服务;图书馆;图书馆,孝德湖公园西南侧,狮山镇,113.05907,23.067585,0,False,,文化宫
B0FFI1WHH3,读书驿站(里水恒大金名都站),文化场馆,科教文化服务;图书馆;图书馆,里水镇里广路7号恒大金名都东区西门,里水镇,113.206569,23.176407,0,False,,文化宫
B0FFJ7QV3Y,读书驿站(大沥黄岐文化广场站),文化场馆,科教文化服务;图书馆;图书馆,怡安阁西1门旁,大沥镇,113.186657,23.116065,0,False,,文化宫
B0I0O74P6X,读书驿站(大沥黄岐社区站),文化场馆,科教文化服务;图书馆;图书馆,大沥镇黄岐社区漖表龙舟基地内,大沥镇,113.20379,23.105291,0,False,,文化宫
B0FFI1XFLI,读书驿站(西樵太平社区站),文化场馆,科教文化服务;图书馆;图书馆,西樵镇太平路11号,西樵镇,112.913952,22.929092,0,False,,文化宫
B0FFI1OO5T,读书驿站(西樵樵乐社区站),文化场馆,科教文化服务;图书馆;图书馆,西樵镇下北街33号樵乐社区中心,西樵镇,112.952119,22.959961,0,False,,文化宫
B0I12P2HT9,读书驿站(大沥嘉怡社区站),文化场馆,科教文化服务;图书馆;图书馆,北海路65号,大沥镇,113.184267,23.109852,0,False,,文化宫
B0FFI6RNVU,读书驿站(狮山联表小学站),自然景观,科教文化服务;图书馆;图书馆,联表小学西南门旁,狮山镇,113.101432,23.153375,0,False,,文化宫
B0FFKZUW5O,读书驿站(狮山官窑中心小学站),自然景观,科教文化服务;图书馆;图书馆,狮山镇起凤西路15号官窑中心小学旁,狮山镇,113.080096,23.225499,0,False,,文化宫
B0HKZ5T1VS,青少宫翰林宫自助图书馆,文化场馆,科教文化服务;图书馆;图书馆,丹灶镇建沙路美的翰湖苑外右侧青少年文化宫翰林宫一楼,丹灶镇,112.94241,23.046978,0,False,,文化宫
B0FFI1RYS9,读书驿站(西樵文化中心站)(暂停营业),文化场馆,科教文化服务;图书馆;图书馆,西樵镇文明路4号西樵文化中心1层,西樵镇,112.975788,22.940523,0,False,,文化宫
B0LD5XA449,读书驿站(里水宏岗站),文化场馆,科教文化服务;图书馆;图书馆,宏岗中心东街10号之3号,里水镇,113.141375,23.224725,0,False,,文化宫
B0FFI6RMEO,读书驿站(西樵河岗社区站),文化场馆,科教文化服务;图书馆;图书馆|生活服务;生活服务场所;生活服务场所,西樵镇河岗社区河溪经济社,西樵镇,112.897358,22.956036,0,False,,文化宫
B0M61LKE5K,南海图书馆·阅读坊菁英成长中心,文化场馆,科教文化服务;图书馆;图书馆,地铁2号线林岳西站西南方向160米左右,桂城街道,113.235613,22.992987,0,False,,文化宫
B0GKS7LU4G,读书驿站(桂城中海万锦豪园站),文化场馆,科教文化服务;图书馆;图书馆,中海·万锦豪园香樟西门旁,桂城街道,113.151698,23.051349,4.2,False,,文化宫
B0FFFXZZFZ,读书驿站(桂城万科金色家园站),文化场馆,科教文化服务;图书馆;图书馆,桂城街道桂平路16号,桂城街道,113.168891,23.030401,0,False,,文化宫
B0H02SDTVY,南海档案史志图书馆,文化场馆,科教文化服务;图书馆;图书馆,桂城街道天佑四路56号,桂城街道,113.145768,23.028813,0,False,,文化宫
B0FFJIHKZ2,读书驿站(九江中心小学站),文化场馆,科教文化服务;图书馆;图书馆,九江镇石马东街26号,九江镇,113.015486,22.828005,0,False,,文化宫
B0FFI6ROVW,读书驿站(桂城平南小学站),文化场馆,科教文化服务;图书馆;图书馆,平南小学旁边(平南地铁站C口步行390米),桂城街道,113.203902,23.018671,0,False,,文化宫
B0FFJP15C3,读书驿站(大沥六联社区站),文化场馆,科教文化服务;图书馆;图书馆,大沥镇六联社区活动中心内,大沥镇,113.175784,23.116277,3.6,False,,文化宫
B0K6FAK6A2,读书驿站(桂城沁馆站),文化场馆,科教文化服务;图书馆;图书馆,南五路20号,桂城街道,113.142238,23.046269,0,False,,文化宫
B0FFI6R3LL,读书驿站(九江镇南村站),文化场馆,科教文化服务;图书馆;图书馆|生活服务;生活服务场所;生活服务场所,九江镇镇南村委会旁,九江镇,112.924401,22.875827,0,False,,文化宫
B0FFJ9X04E,读书驿站(大沥白沙社区站),文化场馆,科教文化服务;图书馆;图书馆,大沥镇白沙社区中心路,大沥镇,113.201387,23.132012,0,False,,文化宫
B0IRZU607L,读书驿站(桂城党校站),文化场馆,科教文化服务;图书馆;图书馆,长堤东路与天佑四路交叉口西北320米,桂城街道,113.144611,23.023435,0,False,,文化宫
B0FFI6RJ3K,读书驿站(桂城三山港小学站),自然景观,科教文化服务;图书馆;图书馆,三山港小学,桂城街道,113.226846,23.036921,0,False,,文化宫
B0K6FACXN1,读书驿站(狮山新和站),自然景观,科教文化服务;图书馆;图书馆,黄氏宗祠附近,狮山镇,112.964475,23.221826,0,False,,文化宫
B0I04UVRVM,读书驿站(中建广场店),文化场馆,科教文化服务;图书馆;图书馆,南海大道北8号中建广场V+MALLF4层,桂城街道,113.140593,23.062231,0,False,,文化宫
B0I17CR6II,读书驿站(大沥河西站),文化场馆,科教文化服务;图书馆;图书馆,河西大道44号,大沥镇,113.159899,23.081572,0,False,,文化宫
B0FFID63L8,读书驿站(桂城叠滘小学站),文化场馆,科教文化服务;图书馆;图书馆,叠南东风村83号,桂城街道,113.131147,23.056113,0,False,,文化宫
B0FFHZX1T3,读书驿站(桂城颐景园站),文化场馆,科教文化服务;图书馆;图书馆,桂城街道华翠南路6号翠颐社区南海·颐景园内,桂城街道,113.166376,23.034543,0,False,,文化宫
B0I37URZMQ,读书驿站(九江下北社区站),文化场馆,科教文化服务;图书馆;图书馆,樵江路34号,九江镇,113.015147,22.842406,0,False,,文化宫
B0FFI1OMUK,读书驿站(西樵爱国社区站),文化场馆,科教文化服务;图书馆;图书馆,西樵镇爱国社区杏头村富贵大道43号,西樵镇,112.962902,22.940175,0,False,,文化宫
B0FFJPS1V6,读书驿站(狮山松岗行政服务中心站),自然景观,科教文化服务;图书馆;图书馆,狮山镇松岗松石路松岗办公大楼停车场,狮山镇,113.107656,23.149576,0,False,,文化宫
B0FFI2MRFL,读书驿站(西樵樵晖新城站),文化场馆,科教文化服务;图书馆;图书馆,西樵镇樵晖新城牌坊后,西樵镇,112.999234,22.935924,0,False,,文化宫
B0LKJA1FLM,读书驿站(里水新联站),文化场馆,科教文化服务;图书馆;图书馆,赤坎路22号,里水镇,113.167233,23.191161,0,False,,文化宫
B0JRGR91RN,读书驿站(狮山芦塘社区站),自然景观,科教文化服务;图书馆;图书馆,灯围路7号,狮山镇,113.047047,23.065107,0,False,,文化宫
B02F5076HS,南海科学馆,其他,科教文化服务;科技馆;科技馆,桂城天佑三路3号(桂城地铁站D1口步行370米),桂城街道,113.140106,23.030084,4.3,False,,影剧院
B0KAF1JBY4,台铃科技馆(融创御府店),其他,科教文化服务;科技馆;科技馆,大沥镇岭南路88号融创·御府,大沥镇,113.146428,23.119175,4.2,False,,影剧院
B0H1XU4G31,佛山九江小牛顿科学馆(渔具路),自然景观,科教文化服务;科技馆;科技馆,九江镇渔具路844号,九江镇,113.021399,22.830516,3.7,False,,影剧院
B0IDFDH3KS,广东省民营科技馆,其他,科教文化服务;科技馆;科技馆,科旺路与科盛路交叉口西南20米,狮山镇,113.027543,23.106347,3.8,False,,影剧院
B0LB97X2S6,UNI·科技创意中心(映月湖环宇城),自然景观,科教文化服务;科技馆;科技馆,石龙南路6号映月湖环宇城F4层,桂城街道,113.187732,23.03292,3.1,False,,影剧院
B02F504MUV,广东轻工职业技术大学(南海校区北区),其他,科教文化服务;学校;高等院校,狮山南海软件科技园,狮山镇,113.03544,23.159883,0,False,,文化传媒
B02F508G5C,桂城中学,其他,科教文化服务;学校;中学,桂城街道平洲石龙南路,桂城街道,113.187282,23.025462,0,False,,文化传媒
B02F50UERZ,石门中学,其他,科教文化服务;学校;中学,大沥镇黄岐北环路18号,大沥镇,113.184287,23.121699,0,False,,文化传媒
B02F50V42C,佛山大学仙溪校区,自然景观,科教文化服务;学校;高等院校,狮山镇广云路33号,狮山镇,113.054903,23.137054,0,False,,文化传媒
B02F504RKW,华南师范大学佛山校区南海校园,自然景观,科教文化服务;学校;高等院校,桃园东路,狮山镇,113.028525,23.1469,0,False,,文化传媒
B02F5024DT,金石实验中学,其他,科教文化服务;学校;中学,人民西路8号,狮山镇,112.995882,23.124473,0,False,,文化传媒
B02F500E9F,南海九江中学,其他,科教文化服务;学校;中学,九江镇船栏街100号,九江镇,113.020957,22.836677,0,False,,文化传媒
B02F506RX3,广东东软学院,其他,科教文化服务;学校;高等院校,信息大道南与鸿基路交汇处,狮山镇,113.025887,23.138605,0,False,,文化传媒
B02F507RSJ,广东环境保护工程职业学院,其他,科教文化服务;学校;高等院校,桂丹西路98号(丹灶中学对面),丹灶镇,112.909992,23.047843,0,False,,文化传媒
B02F508QXL,南海中学,其他,科教文化服务;学校;中学,西樵镇新西樵大桥南,西樵镇,112.999948,22.942728,0,False,,文化传媒
B0FFFWORAG,南海外国语高级中学,其他,科教文化服务;学校;学校,桂城街道三山新城F02街区,桂城街道,113.227515,23.001942,0,False,,文化传媒
B0FFI7SIX5,佛山大学(仙溪校区北区),自然景观,科教文化服务;学校;高等院校,狮山镇仙溪水库西路,狮山镇,113.053899,23.140435,0,False,,文化传媒
B02F50YYFV,广东艺术职业学院,其他,科教文化服务;学校;职业技术学校,大沥高尔夫路,大沥镇,113.060632,23.097562,0,False,,文化传媒
B02F5078D7,南海第一中学,其他,科教文化服务;学校;中学,平洲清风东路,桂城街道,113.188191,23.048895,0,False,,文化传媒
B0FFGAPBJ8,石门高级中学,其他,科教文化服务;学校;中学,狮山镇红星1号,狮山镇,113.0022,23.123686,0,False,,文化传媒
B02F506SHM,华南师范大学附属中学南海实验高级中学,其他,科教文化服务;学校;中学,桂城街道东平路7号,桂城街道,113.166731,23.028046,0,False,,文化传媒
B0HBTP1ICL,南海实验学校,其他,科教文化服务;学校;中学,桂丹西路与阳明路交叉口南240米,丹灶镇,112.890912,23.045545,0,False,,文化传媒
B02F507788,南海区信息技术学校,其他,科教文化服务;学校;职业技术学校,狮山镇小塘桂丹路100号,狮山镇,113.003527,23.08594,4.5,False,,文化传媒
B02F507HEI,盐步中学,其他,科教文化服务;学校;中学,大沥镇盐步环镇西路10号,大沥镇,113.178636,23.087901,0,False,,文化传媒
B02F506A0D,南海艺术高级中学,其他,科教文化服务;学校;中学,桂城街道天佑四路2号,桂城街道,113.148056,23.02191,0,False,,文化传媒
B02F5076TP,南海实验中学,其他,科教文化服务;学校;中学,桂城东平路5号,桂城街道,113.162525,23.028573,0,False,,文化传媒
B0FFL4LOFK,南海双语实验学校,其他,科教文化服务;学校;中学,里水镇洲村社区凤江路2号,里水镇,113.189108,23.174499,0,False,,文化传媒
B02F506SHJ,平洲二中,其他,科教文化服务;学校;中学,大德路15号,桂城街道,113.200113,23.034529,0,False,,文化传媒
B0G2U95V6E,瀚文外国语学校,其他,科教文化服务;学校;学校,桂城街道简平路22号,桂城街道,113.168983,23.033792,0,False,,文化传媒
B02F503R5I,南海区西樵高级中学,其他,科教文化服务;学校;中学,西樵镇崇南碧霞路,西樵镇,112.987431,22.961,0,False,,文化传媒
B0G3LYFO9F,广东省机械技师学院(南海校区),其他,科教文化服务;学校;职业技术学校,狮山镇英才路1号,狮山镇,113.021322,23.161045,4.7,False,,文化传媒
B0GR95QB6C,广东轻工职业技术大学(南海校区南区),其他,科教文化服务;学校;高等院校,狮山大学城万锦路,狮山镇,113.034546,23.147565,4.8,False,,文化传媒
B02F5076UB,罗村高级中学,其他,科教文化服务;学校;中学,狮山镇罗村罗湖中路4号,狮山镇,113.056492,23.0547,0,False,,文化传媒
B02F5076FH,石𬒔中学,其他,科教文化服务;学校;中学,清晖路与清风路交叉口东北100米,桂城街道,113.15711,23.0074,0,False,,文化传媒
B02F511AE0,佛山市超盈实验中学,自然景观,科教文化服务;学校;中学,狮山镇罗村街道,狮山镇,113.041949,23.045473,0,False,,文化传媒
B02F5076B2,罗村一中,其他,科教文化服务;学校;中学,桂丹路罗村镇街边路段北侧,大沥镇,113.082695,23.061334,0,False,,文化传媒
B02F5076HZ,海三路小学,其他,科教文化服务;学校;小学,桂城镇海三北路7号,桂城街道,113.129846,23.048994,0,False,,文化传媒
B0FFHECYQP,南海区石英实验学校,其他,科教文化服务;学校;中学,联滘大道南1号,里水镇,113.136382,23.117305,0,False,,文化传媒
B02F504613,南执高级中学,其他,科教文化服务;学校;中学,环山大道,丹灶镇,112.996548,22.928752,0,False,,文化传媒
B02F503EXR,狮山高级中学,自然景观,科教文化服务;学校;中学,红星南路旁,狮山镇,112.986857,23.101749,0,False,,文化传媒
B02F5076HQ,桂华中学,其他,科教文化服务;学校;中学,南新一路桂华街2号,桂城街道,113.150197,23.021552,0,False,,文化传媒
B0GDH93A37,广东职业技术学院(南海校区),其他,科教文化服务;学校;高等院校,官窑教育路31号,狮山镇,113.084884,23.230699,0,False,,文化传媒
B0GKGH6E0P,佛山市南山湖实验中学,自然景观,科教文化服务;学校;中学,桃园西路,狮山镇,113.021635,23.149909,0,False,,文化传媒
B02F507HDK,佛山市南海科学高中,自然景观,科教文化服务;学校;中学,里水镇甘蕉路段(近旗峰小学),里水镇,113.150284,23.168678,0,False,,文化传媒
B02F504MZU,大沥高级中学,其他,科教文化服务;学校;中学,大沥镇博爱路,大沥镇,113.103514,23.114552,0,False,,文化传媒
B0G2XAK1G3,灯湖中学,自然景观,科教文化服务;学校;中学,清风西路与华翠北路交界,桂城街道,113.163033,23.051503,0,False,,文化传媒
B02F506RZ2,丹灶中学,其他,科教文化服务;学校;中学,桂丹西路111号(丹灶医院西),丹灶镇,112.908316,23.052093,0,False,,文化传媒
B0FFFEOW2U,佛山市人民警察训练学校,自然景观,科教文化服务;学校;学校,大沥镇谢边广鸿沣旧机动车交易中心佛山警校,大沥镇,113.106187,23.073025,0,False,,文化传媒
B02F50UP55,大沥中学,其他,科教文化服务;学校;中学,教育路25号,大沥镇,113.127808,23.116098,0,False,,文化传媒
B02F505YGU,白沙小学,其他,科教文化服务;学校;小学,大沥镇黄岐白沙村学校街1号,大沥镇,113.204258,23.130828,0,False,,文化传媒
B0FFK5OLGH,狮山实验学校,自然景观,科教文化服务;学校;中学,狮山镇博爱东路1号,狮山镇,113.09726,23.11448,0,False,,文化传媒
B02F5024DS,石小实验学校,其他,科教文化服务;学校;小学,狮山镇佛山一环狮山城区路段博爱路出口,狮山镇,113.010553,23.113705,0,False,,文化传媒
B02F508NZQ,平地小学,其他,科教文化服务;学校;小学,大沥镇平地德政路6号,大沥镇,113.156395,23.117364,0,False,,文化传媒
B0GKBDEYKX,佛山市听音湖实验中学(高中),自然景观,科教文化服务;学校;中学,西樵镇樵丹路21号,西樵镇,112.955395,22.951123,0,False,,文化传媒
B02F508OIZ,里水小学,其他,科教文化服务;学校;小学,里水镇新兴路58号-1,里水镇,113.161509,23.20052,0,False,,文化传媒
B02F5075J2,佛山市南海区桂城东翔学校,自然景观,科教文化服务;学校;中学,东二村南街南二巷与南区二巷交叉口南100米,桂城街道,113.160225,23.021881,0,False,,文化传媒
B02F5076GB,桂江小学,其他,科教文化服务;学校;小学,海七路3号,桂城街道,113.137034,23.063852,0,False,,文化传媒
B02F501F7I,和顺一中,其他,科教文化服务;学校;中学,和顺镇美景大道,里水镇,113.12646,23.260514,0,False,,文化传媒
B02F50UAFV,南海中学分校,其他,科教文化服务;学校;中学,九江镇沙头民康路28号,九江镇,113.02228,22.918131,0,False,,文化传媒
B02F5076B3,罗村二中,其他,科教文化服务;学校;中学,罗村罗务公路2号,狮山镇,113.040682,23.054786,0,False,,文化传媒
B0FFG70RCJ,广石实验学校,其他,科教文化服务;学校;小学,狮山镇松岗商业大道68号,狮山镇,113.079288,23.151004,0,False,,文化传媒
B0FFITGONO,佛山南海湾实验中学,自然景观,科教文化服务;学校;中学,西樵西岸东西大道55号,西樵镇,112.887774,22.86587,4.3,False,,文化传媒
B02F503DTQ,官窑二中,其他,科教文化服务;学校;中学,狮山镇官窑教育路35号,狮山镇,113.086432,23.228999,0,False,,文化传媒
B0FFKEOB9I,佛山市南海翰林实验学校,自然景观,科教文化服务;学校;中学,石涌市场旁,狮山镇,112.899851,23.075844,0,False,,文化传媒
B02F503XSE,桃园中学,其他,科教文化服务;学校;中学,松岗桃园一路,大沥镇,113.09682,23.142766,0,False,,文化传媒
B0GKOU8VJC,瀚德外国语学校,其他,科教文化服务;学校;学校,九江镇沙头沙龙路63号,九江镇,113.039728,22.899295,0,False,,文化传媒
B0FFFMLYP9,盐步中心小学,其他,科教文化服务;学校;小学,盐步华青路,大沥镇,113.178214,23.08348,0,False,,文化传媒
B0FFJT3FU8,佛山市梅沙双语学校,自然景观,科教文化服务;学校;小学,狮山镇仙溪水库西路,狮山镇,113.049912,23.140508,0,False,,文化传媒
B02F508EU2,佛山市南海区卓远未来实验学校,自然景观,科教文化服务;学校;中学,美景大道,里水镇,113.120249,23.275579,0,False,,文化传媒
B02F5038NN,博雅学校,其他,科教文化服务;学校;中学,狮山镇仙溪村环村路,狮山镇,113.046231,23.136836,0,False,,文化传媒
B02F501GP7,南海实验小学,其他,科教文化服务;学校;小学,桂城灯湖东路20号保利水城西侧,桂城街道,113.14499,23.062088,0,False,,文化传媒
B02F50783O,映月第四小学,其他,科教文化服务;学校;小学,桂城街道平西居委会侧,桂城街道,113.189746,23.01938,0,False,,文化传媒
B0FFKCKPN9,南海外国语学校-小学部,其他,科教文化服务;学校;小学,岗北路美伦国际学校南(林岳北地铁站B口步行390米),桂城街道,113.230781,23.002461,0,False,,文化传媒
B02F50UENN,盐步三中,其他,科教文化服务;学校;中学,大沥镇盐步穂盐西路,大沥镇,113.162417,23.091874,0,False,,文化传媒
B02F503UTJ,狮城中学,其他,科教文化服务;学校;中学,狮山镇红星路,狮山镇,113.006373,23.133148,0,False,,文化传媒
B02F505Z9M,和顺小学,其他,科教文化服务;学校;小学,里水镇和顺小学路4号,里水镇,113.140852,23.253051,0,False,,文化传媒
B02F50UA1H,石𬒔小学,其他,科教文化服务;学校;小学,桂城石肯彭岸路,桂城街道,113.160056,23.006517,0,False,,文化传媒
B02F5076YD,罗村实验学校,其他,科教文化服务;学校;小学,狮山镇北湖一路10号(罗村地铁站C口步行130米),狮山镇,113.050607,23.068614,0,False,,文化传媒
B02F50731F,桂江第二初级中学,其他,科教文化服务;学校;中学,桂城南一路64号,桂城街道,113.136226,23.054008,0,False,,文化传媒
B02F508NOU,里水中学,其他,科教文化服务;学校;中学,里水镇赤坎路24号,里水镇,113.165589,23.190926,0,False,,文化传媒
B02F503OF8,麻奢小学,其他,科教文化服务;学校;小学,里水镇麻奢村,里水镇,113.119171,23.215658,0,False,,文化传媒
B02F508NPZ,东秀小学,其他,科教文化服务;学校;小学,大沥镇东秀高村3号,大沥镇,113.207158,23.091198,0,False,,文化传媒
B02F5076UQ,西樵中学,其他,科教文化服务;学校;中学,西樵镇锦湖路,西樵镇,112.960811,22.928671,0,False,,文化传媒
B02F507H5U,沙溪小学,其他,科教文化服务;学校;小学,北约路与涌泉路交叉口南140米,里水镇,113.196199,23.127511,0,False,,文化传媒
B02F508MMA,联和吴汉小学,其他,科教文化服务;学校;小学,中区五路,大沥镇,113.087153,23.077785,0,False,,文化传媒
B02F50YKRR,九江上东小学,其他,科教文化服务;学校;小学,上东村永红队83号,九江镇,113.0296,22.826078,0,False,,文化传媒
B0FFIAHPUV,绿欣小学,其他,科教文化服务;学校;小学,花江街1号绿地香树花园2区,里水镇,113.159164,23.145917,0,False,,文化传媒
B0IUL7U1YL,佛山大学(仙溪校区南区),自然景观,科教文化服务;学校;高等院校,狮山镇广云路33号,狮山镇,113.058816,23.132285,0,False,,文化传媒
B02F50W1GM,国际武术学校,其他,科教文化服务;学校;学校,凤台大道,丹灶镇,112.988193,22.892733,4.4,False,,文化传媒
B0FFH6XM5Z,美伦国际高中,其他,科教文化服务;学校;中学,桂城街道岗北路15号,桂城街道,113.228472,23.004024,4.4,False,,文化传媒
B0JG19WDDR,桂城一中,其他,科教文化服务;学校;中学,南港大街18号,桂城街道,113.20649,23.041677,0,False,,文化传媒
B0FFIB4ZMI,映月中学,其他,科教文化服务;学校;中学,夏平中路,桂城街道,113.179171,23.041047,0,False,,文化传媒
B0J6MSGSD6,佛山市金桂实验高级中学,自然景观,科教文化服务;学校;中学,清风东路与石龙北路交口,桂城街道,113.18815,23.051498,0,False,,文化传媒
B02F503KGH,金沙中学,其他,科教文化服务;学校;中学,丹灶镇金业路9号,丹灶镇,112.958896,23.059493,0,False,,文化传媒
B02F507B0N,联表小学,其他,科教文化服务;学校;小学,狮山镇松岗禅炭路,狮山镇,113.101886,23.153778,0,False,,文化传媒
B0FFMADDYG,加美实验学校,其他,科教文化服务;学校;中学,大沥镇谢边社区海景大道(谢边大道)16号,大沥镇,113.10846,23.07542,0,False,,文化传媒
B02F507KJ0,桂江一中,其他,科教文化服务;学校;中学,桂城南新三路1号(桂城地铁站D1口步行490米),桂城街道,113.140053,23.028807,0,False,,文化传媒
B02F5039H3,城南小学,其他,科教文化服务;学校;小学,水头路20号,里水镇,113.126436,23.103643,0,False,,文化传媒
B02F50V2XY,广东理工职业学院汽车学院,其他,科教文化服务;学校;高等院校,平洲夏南一路工业区,桂城街道,113.177739,23.03788,0,False,,文化传媒
B0FFHRXHK3,文翰中学,其他,科教文化服务;学校;中学,环岛西路,桂城街道,113.226505,23.019428,0,False,,文化传媒
B02F508FYS,南海中心小学,其他,科教文化服务;学校;小学,简平路15号,桂城街道,113.166977,23.030196,0,False,,文化传媒
B02F5060JL,石门中学(南校区),其他,科教文化服务;学校;中学,大沥镇,大沥镇,113.183359,23.11955,0,False,,文化传媒
B02F50UESC,水星学校,其他,科教文化服务;学校;中学,永青路91号,里水镇,113.179858,23.083128,0,False,,文化传媒
B02F501F15,小塘中学,其他,科教文化服务;学校;中学,狮山镇小塘四环路,狮山镇,112.987125,23.091677,0,False,,文化传媒
B0JBHHWZHM,佛山暨大港澳子弟学校,自然景观,科教文化服务;学校;学校,大沥镇太平村体育西路,大沥镇,113.101221,23.110016,0,False,,文化传媒
B0FFFZ2XE1,平洲博雅学校,其他,科教文化服务;学校;中学,华山南路与文林线交叉口北260米,桂城街道,113.240779,22.998847,0,False,,文化传媒
B0FFF2RXH1,招商银行(佛山分行营业部),自然景观,金融保险服务;银行;招商银行,桂城街道灯湖东路12号招商银行大厦,桂城街道,113.149304,23.052059,0,False,,宗教场所
B0IRF5AJUW,广东农信数据中心,其他,金融保险服务;金融保险服务机构;金融保险机构,,桂城街道,113.15852,23.070748,0,False,,宗教场所
B0FFH3T45R,中国农业银行(南海分行),其他,金融保险服务;银行;中国农业银行,南海大道72号金汇大厦1层,桂城街道,113.141694,23.034444,0,False,,宗教场所
B02F508NRD,中国工商银行(里水支行),其他,金融保险服务;银行;中国工商银行,里水镇朝阳路42号,里水镇,113.160542,23.196778,0,False,,宗教场所
B02F508NRE,建行佛山里水支行,自然景观,金融保险服务;银行;中国建设银行,里水镇振兴路25号,里水镇,113.160915,23.197277,0,False,,宗教场所
B02F50473S,中国农业银行南海大沥支行,其他,金融保险服务;银行;中国农业银行,大沥镇新城大道,大沥镇,113.110566,23.11117,0,False,,宗教场所
B0FFFAQ2KJ,汇丰银行(佛山分行),自然景观,金融保险服务;银行;汇丰银行|公司企业;公司;公司,灯湖东路10号承创大厦101室之一及20层,桂城街道,113.149473,23.055847,0,False,,宗教场所
B02F505RFT,中国农业银行(南海罗村支行),其他,金融保险服务;银行;中国农业银行,罗村街道南湖一路5号,狮山镇,113.051015,23.059532,0,False,,宗教场所
B02F50UBU0,中国农业银行(南海东部支行),其他,金融保险服务;银行;中国农业银行,黄岐岐西路66号,大沥镇,113.189448,23.114722,0,False,,宗教场所
B0KG55DXZ4,拉卡拉银小云刷卡机办理服务中心(南海万达店),其他,金融保险服务;金融保险服务机构;金融保险机构,桂澜北路28号万达广场佛山南海店首层5号门入口处,桂城街道,113.157187,23.063488,0,False,,宗教场所
B0FFK82AW0,广发银行(千灯湖支行),自然景观,金融保险服务;银行;广发银行,桂城街道灯湖东路6号广发银行信用卡中心,桂城街道,113.150295,23.059739,0,False,,宗教场所
B02F50XPM7,南海农商银行(罗村支行),其他,金融保险服务;银行;农村商业银行,狮山镇狮山南海罗村文化街2号,狮山镇,113.053675,23.059873,0,False,,宗教场所
B0FFFFWM6Z,中国农业银行(南海丹灶支行),其他,金融保险服务;银行;中国农业银行,丹灶商业大道20号,丹灶镇,112.919556,23.039658,0,False,,宗教场所
B02F50XH25,招商银行(佛山狮山支行),自然景观,金融保险服务;银行;招商银行,狮山红星公路俊景花园C区03座商场,狮山镇,113.005591,23.125388,0,False,,宗教场所
B0FFLQ6XLM,中国工商银行(佛山南海支行),自然景观,金融保险服务;银行;中国工商银行,南海大道北73号(桂城地铁站D2口步行100米),桂城街道,113.140685,23.034178,0,False,,宗教场所
B0HRH5332J,中国工商银行(佛山狮山支行),自然景观,金融保险服务;银行;中国工商银行,红星南路与科技北路交叉口北420米,狮山镇,113.000515,23.118694,0,False,,宗教场所
B0FFITGRPV,中国光大银行(佛山分行),自然景观,金融保险服务;银行;中国光大银行,锦园路15号光大银行大厦,桂城街道,113.150985,23.051674,0,False,,宗教场所
B02F5046SL,中国建设银行(丹灶支行),其他,金融保险服务;银行;中国建设银行,丹灶镇工业大道2号,丹灶镇,112.919049,23.035541,0,False,,宗教场所
B02F5073E3,中国银行(佛山南海支行),自然景观,金融保险服务;银行;中国银行,佛山市南海区中国银行,桂城街道,113.139766,23.039492,0,False,,宗教场所
B02F5077SU,中国农业银行(南海狮山支行),自然景观,金融保险服务;银行;中国农业银行,狮山红星大道俊景花园H区B06号,狮山镇,113.005224,23.127248,0,False,,宗教场所
B02F501ONO,中国农业银行(南海桂城支行),其他,金融保险服务;银行;中国农业银行,南港路6号,桂城街道,113.19508,23.03513,0,False,,宗教场所
B0FFF9W8I8,招商银行(佛山大沥支行),自然景观,金融保险服务;银行;招商银行,大沥竹基南路1号华亚国际金融大厦首层1号商铺,大沥镇,113.117875,23.109489,0,False,,宗教场所
B0IKHHD63J,中国工商银行(平洲支行),其他,金融保险服务;银行;中国工商银行,桂城镇佛平四路1号26座,桂城街道,113.190181,23.036648,0,False,,宗教场所
B02F50V3XU,中国工商银行(佛山南海金沙湾支行),自然景观,金融保险服务;银行;中国工商银行,大沥镇黄岐建设大道1号中海金沙湾西区商业5号13号,大沥镇,113.205664,23.141,0,False,,宗教场所
B0LR6SFSNK,中国工商银行佛山大沥支行,自然景观,金融保险服务;银行;中国工商银行,大沥镇腾龙路1号中铝广场商业楼101-128铺、201-214铺、301-314铺,大沥镇,113.143813,23.107681,0,False,,宗教场所
B0IUC502LF,广州银行(佛山分行),自然景观,金融保险服务;银行;银行,海八东路32号地铁金融城第一层104商铺北塔三十三十一层,桂城街道,113.157148,23.066345,0,False,,宗教场所
B0I2OCRT74,招商银行(佛山南海支行),自然景观,金融保险服务;银行;招商银行,桂城街道灯湖西路3号中海灯湖花园商业一座之2号,桂城街道,113.145347,23.063113,0,False,,宗教场所
B0IKVME36V,招商银行(佛山环宇城支行),自然景观,金融保险服务;银行;招商银行,桂澜中路18号中海寰宇天下花园16座137-144铺招商银行,桂城街道,113.156183,23.042768,0,False,,宗教场所
B0FFFTHTGB,中国建设银行(佛山狮山支行),自然景观,金融保险服务;银行;中国建设银行,狮山镇博爱中路湖景湾会所首层,狮山镇,113.002579,23.118407,0,False,,宗教场所
B0JGCKLOHH,中国工商银行南海黄岐支行,其他,金融保险服务;银行;中国工商银行,城际·荔盈大厦西北1门旁,大沥镇,113.19424,23.112689,0,False,,宗教场所
B0G0T5GQ32,招商银行(佛山罗村支行),自然景观,金融保险服务;银行;招商银行,罗村街道北湖一路7号北湖丽都首层107-110商铺,狮山镇,113.0521,23.069683,0,False,,宗教场所
B02F507VH4,中国银行(黄岐支行),其他,金融保险服务;银行;中国银行,岐西路70号,大沥镇,113.189647,23.116066,0,False,,宗教场所
B02F508Q2W,中国农业银行(南海里水支行),其他,金融保险服务;银行;中国农业银行,里水镇沿江西路21号,里水镇,113.164154,23.195118,0,False,,宗教场所
B0FFHQGBJM,中国银行(大沥支行),其他,金融保险服务;银行;中国银行,大沥行政金融中心新城大道中(金茂酒店旁)1层及2层,大沥镇,113.110089,23.115359,0,False,,宗教场所
B02F501BDX,中国农业银行(南海平东支行),其他,金融保险服务;银行;中国农业银行,永安中路43号,桂城街道,113.205962,23.027504,0,False,,宗教场所
B02F50YBKX,中国建设银行(佛山南海支行),自然景观,金融保险服务;银行;中国建设银行,南海大道北34号财联大厦2层,桂城街道,113.140202,23.048651,0,False,,宗教场所
B02F501UL0,中国工商银行(佛山平洲和平支行),自然景观,金融保险服务;银行;中国工商银行,永安中路11号,桂城街道,113.209882,23.02986,0,False,,宗教场所
B0HA3C2XK1,中国农业银行(南海塘城支行),其他,金融保险服务;银行;中国农业银行,狮山镇小塘长安路1号,狮山镇,112.975464,23.092854,0,False,,宗教场所
B02F5072V3,中国邮政储蓄银行(桂城支行),其他,金融保险服务;银行;中国邮政储蓄银行,桂城南桂东路17号(桂城地铁站E口步行240米),桂城街道,113.142792,23.032373,0,False,,宗教场所
B0HDZMYX70,招商银行(佛山盐步支行),自然景观,金融保险服务;银行;招商银行,大沥镇广佛路97号美嘉广场,大沥镇,113.177556,23.106762,0,False,,宗教场所
B02F501AOT,中国工商银行集约运营中心,其他,金融保险服务;银行;中国工商银行|金融保险服务;银行相关;银行相关,南海大道北73号(桂城地铁站D2口步行240米),桂城街道,113.140589,23.034271,0,False,,宗教场所
B0HBO6IO4U,中国工商银行(佛山罗村支行),自然景观,金融保险服务;银行;中国工商银行,罗村大道南1号光明花半里二期商铺,丹灶镇,113.046155,23.047734,0,False,,宗教场所
B0HK1A7Z9V,中国农业银行(九江支行),其他,金融保险服务;银行;中国农业银行,九江镇大正路19号嘉裕华府B区商业楼,九江镇,113.01057,22.844133,0,False,,宗教场所
B02F5078AC,招商银行(佛山平洲支行),自然景观,金融保险服务;银行;招商银行,桂城街道永安路平洲文化站首层,桂城街道,113.207323,23.029176,0,False,,宗教场所
B0H12H8NUE,中国建设银行(佛山金沙湾支行),自然景观,金融保险服务;银行;中国建设银行,建设大道1号财富广场F1层,里水镇,113.209311,23.141964,0,False,,宗教场所
B0JAUAOBT1,中国银行(佛山南海狮山支行),自然景观,金融保险服务;银行;中国银行,狮山镇科技北路5号凯旋名门花园7座04-09号商铺,狮山镇,112.998114,23.122075,0,False,,宗教场所
B0FFKZ9GRT,中国建设银行(建强支行),其他,金融保险服务;银行;中国建设银行,大沥镇岭南路85号广佛智城7号楼7106-7117铺,大沥镇,113.145668,23.117599,0,False,,宗教场所
B0JA9BA6VZ,中国银行(佛山南海狮城路支行),自然景观,金融保险服务;银行;中国银行,俊景南路1516号铺,狮山镇,113.009172,23.124371,0,False,,宗教场所
B0I6LD11ZI,招商银行(佛山南海金融公园支行),自然景观,金融保险服务;银行;招商银行,桂城街道融和路16号京华广场5座102-104铺,桂城街道,113.16199,23.067893,0,False,,宗教场所
B02F501ATI,中国农业银行(南海盐步支行),其他,金融保险服务;银行;中国农业银行,盐步大道8号,大沥镇,113.178075,23.091205,0,False,,宗教场所
B02F508FMM,中国建设银行(佛山大沥支行),自然景观,金融保险服务;银行;中国建设银行,大沥镇新城大道凤池商业城D1座,大沥镇,113.111272,23.112983,0,False,,宗教场所
B02F511W5J,珠海华润银行(佛山分行),自然景观,金融保险服务;银行;银行,锦园路13号景兴环球F7层,桂城街道,113.150812,23.052088,0,False,,宗教场所
B0KG1S7R9L,中国建设银行(佛山新凯广场支行),自然景观,金融保险服务;银行;中国建设银行,桂城街道永胜西路22号新凯广场1座110-114、132-133,桂城街道,113.15889,23.062208,0,False,,宗教场所
B02F5047Z5,中国银行(佛山南海桂城支行),自然景观,金融保险服务;银行;中国银行,天佑三路13号(桂城地铁站D出口步行120米),桂城街道,113.140058,23.031524,0,False,,宗教场所
B0JR5SR41N,招商银行(佛山里水支行),自然景观,金融保险服务;银行;招商银行,里水大道10号万冠广场1楼,里水镇,113.160188,23.190532,0,False,,宗教场所
B0FFFN867V,中国银行(平洲支行),其他,金融保险服务;银行;中国银行,平洲南港路4号南港名轩1幢115-119铺和南港名轩120,桂城街道,113.193581,23.034877,0,False,,宗教场所
B02F508MOI,中国工商银行(官窑支行),其他,金融保险服务;银行;中国工商银行,瑶平路北侧商铺2号自编5号魅力牛香隔壁官窑文化广场对面,狮山镇,113.078551,23.223022,0,False,,宗教场所
B02F50UQJE,中国银行(佛山南海怡翠馨园支行),自然景观,金融保险服务;银行;中国银行,简平路2号怡翠馨园1层103-106号,桂城街道,113.168618,23.028112,0,False,,宗教场所
B02F507L6Z,中国银行(佛山南海锦园支行),自然景观,金融保险服务;银行;中国银行,桂城锦园路8号中海万锦豪园01号,桂城街道,113.151685,23.050338,0,False,,宗教场所
B0J1F58YWU,中国银行(南海建设大道支行),其他,金融保险服务;银行;中国银行,大沥镇黄岐海北建设大道南红星美凯龙首层,大沥镇,113.200283,23.140767,0,False,,宗教场所
B0FFIABDXY,浙商银行(佛山分行),自然景观,金融保险服务;银行;银行,桂澜北路4号中盛国际F1层,桂城街道,113.156166,23.049151,0,False,,宗教场所
B02F5054F8,南海农商银行(西樵支行),其他,金融保险服务;银行;农村商业银行,西樵官山文明路9号,西樵镇,112.975682,22.941168,0,False,,宗教场所
B0FFFWDCOR,中国建设银行(佛山岐建支行),自然景观,金融保险服务;银行;中国建设银行,大沥镇黄岐渤海路8号维也纳酒店1层,大沥镇,113.180652,23.117002,0,False,,宗教场所
B02F50474U,中国农业银行(南海金沙支行),其他,金融保险服务;银行;中国农业银行,佛山市南海区金沙城区樵金路镇政府对面,狮山镇,112.962338,23.061249,0,False,,宗教场所
B02F50YC8G,中国建设银行(佛山桂城支行),自然景观,金融保险服务;银行;中国建设银行,桂城天佑三路11号(桂城地铁站D1口步行150米),桂城街道,113.140091,23.03126,0,False,,宗教场所
B0FFHQYS3F,中国银行佛山南海金科支行,自然景观,金融保险服务;银行;中国银行,清风西路29号千灯湖C(金科大厦),桂城街道,113.160311,23.054677,0,False,,宗教场所
B02F50478U,中国农业银行(南海联沙支行),其他,金融保险服务;银行;中国农业银行,樵金北路1号联沙商业广场F1层,狮山镇,112.923685,23.11625,0,False,,宗教场所
B02F50XPBV,南海农商银行(总行营业部),其他,金融保险服务;银行;农村商业银行|公司企业;公司;公司,南海大道北26号,桂城街道,113.140144,23.053382,3.8,False,,宗教场所
B02F503JQS,交通银行(佛山狮山支行),自然景观,金融保险服务;银行;交通银行,狮山镇俊景花园h区h09-H13号商铺,狮山镇,113.004788,23.125336,0,False,,宗教场所
B0FFFXA1ZC,招商银行24小时自助银行(佛山分行),自然景观,金融保险服务;自动提款机;招商银行ATM,灯湖东路12号招商银行大厦F1层,桂城街道,113.149177,23.0524,0,False,,宗教场所
B0FFF0FICR,顺德农商银行(南海支行),其他,金融保险服务;银行;农村商业银行,南海大道北16号联华大厦首二层,桂城街道,113.14074,23.057858,0,False,,宗教场所
B0FFH2HDJ7,中国农业银行(万达支行),其他,金融保险服务;银行;中国农业银行,桂澜北路28号万达广场2层万达金街,桂城街道,113.158391,23.064749,0,False,,宗教场所
B02F507H1Z,中国工商银行(佛山盐步支行),自然景观,金融保险服务;银行;中国工商银行,"大沥镇盐步穗盐东路花地湾雍景豪园帝景台 25至30 座 31、32号铺位,33、35、36号首层铺位",大沥镇,113.198813,23.095484,0,False,,宗教场所
B02F508RL4,中国邮政储蓄银行(平洲支行),其他,金融保险服务;银行;中国邮政储蓄银行,桂城街道平洲南港路4号南港名轩121-125,桂城街道,113.193804,23.035052,0,False,,宗教场所
B0FFMFZ40G,中国工商银行(万科支行),其他,金融保险服务;银行;中国工商银行,桂平西路万科金色家园,桂城街道,113.168694,23.029997,0,False,,宗教场所
B02F5046K9,中国工商银行(丹灶支行),其他,金融保险服务;银行;中国工商银行,丹灶镇商业大道18号,丹灶镇,112.920021,23.040077,0,False,,宗教场所
B0FFHPOQNM,中国农业银行(南海锦城支行),其他,金融保险服务;银行;中国农业银行,桂城街道海八东路1号中海锦城国际花园商业1座31-34铺,桂城街道,113.174349,23.06718,0,False,,宗教场所
B0J2DZXXO6,中国建设银行(佛山罗村支行),自然景观,金融保险服务;银行;中国建设银行,"罗村街道罗村大道南3号尚观嘉园商业C区01-5,13-16号铺及06号铺首层(部分)",丹灶镇,113.043833,23.048574,0,False,,宗教场所
B0FFIDXTCQ,浦发银行(佛山分行),自然景观,金融保险服务;银行;上海浦东发展银行,桂城灯湖东路1号友邦金融中心2座1楼,桂城街道,113.151262,23.063041,0,False,,宗教场所
B02F508LYS,中国工商银行(佛山南海乐信支行),自然景观,金融保险服务;银行;中国工商银行,罗村北湖一路4号时代倾城52-56栋1层020-025号,狮山镇,113.051453,23.06389,0,False,,宗教场所
B0FFH48GGC,中国邮政储蓄银行(南海支行),其他,金融保险服务;银行;中国邮政储蓄银行,灯湖东路1号友邦金融中心1座F1层,桂城街道,113.149925,23.063566,0,False,,宗教场所
B0KKVGJOJY,平安银行(佛山大沥支行),自然景观,金融保险服务;银行;平安银行,大沥镇岭南路83号保利中央公馆首层105-106号,大沥镇,113.145383,23.119366,0,False,,宗教场所
B0FFHLXFOX,中国建设银行(佛山虹岭路支行),自然景观,金融保险服务;银行;中国建设银行,金盈·大众新城,狮山镇,113.00832,23.183587,0,False,,宗教场所
B0HGV5Q8L6,南海体育中心,体育设施,体育休闲服务;运动场馆;综合体育馆,博爱中路辅路与狮城路交叉口南340米,狮山镇,113.008733,23.11687,4.8,False,,体育休闲
B02F5076GC,南海体育馆,体育设施,体育休闲服务;运动场馆;综合体育馆,桂城街道南海大道北36号,桂城街道,113.141117,23.047486,4.7,False,,体育休闲
B0KR3U1J41,佛山千灯湖音乐秀场,自然景观,体育休闲服务;体育休闲服务场所;体育休闲服务场所,融津路南侧,桂城街道,113.156366,23.073309,0,False,,体育休闲
B0G0BD07KD,超级180文娱综合体,体育设施,购物服务;商场;普通商场|购物服务;商场;购物中心|体育休闲服务;体育休闲服务场所;体育休闲服务场所,大沥镇广佛路盐步路段133号(中英假日酒店对面),大沥镇,113.182288,23.10423,4.4,False,,体育休闲
B0LA2ULNM1,南海鹿尔花园,休闲娱乐,体育休闲服务;度假疗养场所;度假村,大沥镇体育南路自编2号佛山鹿尔花园666号-999号,大沥镇,113.106062,23.112403,4.7,False,,体育休闲
B0J2B1UNZC,西樵山森吧飞越树上探险乐园,自然景观,体育休闲服务;休闲场所;游乐场,宝峰寺验票处出口西70米,西樵镇,112.973594,22.929661,4.5,False,,体育休闲
B0H0J7X2FW,南海区体育中心体育场,体育设施,体育休闲服务;运动场馆;运动场所,狮山镇狮城社区博爱中路62号,狮山镇,113.007754,23.115816,4.7,False,,体育休闲
B02F501Y45,南海影剧院,体育设施,体育休闲服务;影剧院;电影院,天佑六路11号,桂城街道,113.147596,23.027407,4.7,False,,体育休闲
B02F506TW0,桃园高尔夫会所,体育设施,体育休闲服务;高尔夫相关;高尔夫球场,松岗南国桃园,大沥镇,113.096736,23.187074,4.5,False,,体育休闲
B0FFHK9X9X,莲塘玫瑰园,体育设施,体育休闲服务;休闲场所;休闲场所,狮山镇东平水道附近,狮山镇,112.93817,23.128095,4.6,False,,体育休闲
B0I325KMOW,丰速卡丁车俱乐部(金沙洲店),体育设施,体育休闲服务;体育休闲服务场所;体育休闲服务场所,大沥镇建设大道丰速卡丁车俱乐部,大沥镇,113.198298,23.14325,4.6,False,,体育休闲
B0L65SO443,九龙Park欢乐世界,体育设施,体育休闲服务;体育休闲服务场所;体育休闲服务场所,大沥镇岭南路,大沥镇,113.147258,23.109479,4.6,False,,体育休闲
B0H06HFNWL,耕山小寨,自然景观,体育休闲服务;体育休闲服务场所;体育休闲服务场所,丹灶镇大杏大道X512,丹灶镇,112.891372,23.021509,4.4,False,,体育休闲
B0J64LOVTT,金沙洲浪险猴天地,体育设施,购物服务;商场;购物中心|体育休闲服务;体育休闲服务场所;体育休闲服务场所,大沥镇,大沥镇,113.196918,23.139699,4.4,False,,体育休闲
B02F50766P,南海高尔夫球会,体育设施,体育休闲服务;高尔夫相关;高尔夫球场,丹灶镇桂丹路,丹灶镇,112.899817,23.055518,4.5,False,,体育休闲
B0FFFEW5UP,万达影城(南海万达广场店),公园绿地,体育休闲服务;影剧院;电影院,桂澜北路28号南海万达广场3号门4层,桂城街道,113.157709,23.063121,4.7,False,,体育休闲
B0FFG3C725,谢边农庄(祠侧巷),体育设施,体育休闲服务;休闲场所;休闲场所,大沥镇谢边村新路土名“北庄公”自编1号,大沥镇,113.110029,23.07066,4.5,False,,体育休闲
B0I23HV2AU,野望川·露营地,体育设施,体育休闲服务;休闲场所;露营地,里水镇贤僚南州村大围自编3号,里水镇,113.177496,23.238281,4.5,False,,体育休闲
B0FFJ7IXXE,花语湖,自然景观,体育休闲服务;体育休闲服务场所;体育休闲服务场所,丹灶镇仙岗村白水塘路白水塘村(全美百货商场西200米),丹灶镇,112.875772,23.056192,4.5,False,,体育休闲
B0J0AA8LZB,远方钓鱼场,体育设施,体育休闲服务;休闲场所;垂钓园,南海花卉博览园旁,里水镇,113.18465,23.176222,4.4,False,,体育休闲
B02F501SVF,黄飞鸿狮艺武术馆,非遗体验,体育休闲服务;运动场馆;运动场所,官太路与北社大街交叉口西南约60米,西樵镇,112.945135,22.923938,4.5,False,,体育休闲
B0H0J7XPQC,夏漖粮园·喜文化创意基地,体育设施,体育休闲服务;体育休闲服务场所;体育休闲服务场所,环二大道与新市直街交叉口西南60米,桂城街道,113.174149,23.046413,4.6,False,,体育休闲
B0FFKGS4Z1,早稻谷文旅小镇,体育设施,公司企业;农林牧渔基地;其它农林牧渔基地|体育休闲服务;体育休闲服务场所;体育休闲服务场所,狮山镇莲塘村委范庠,狮山镇,112.948103,23.129153,4.4,False,,体育休闲
B02F503CYH,佛山高尔夫球会,自然景观,体育休闲服务;高尔夫相关;高尔夫球场,狮山镇高尔夫路333号,狮山镇,113.052089,23.096359,4.6,False,,体育休闲
B0LBZC9ZQK,淘花园露营地,公园绿地,体育休闲服务;休闲场所;露营地,谭边村太平道,大沥镇,113.083397,23.105249,4.4,False,,体育休闲
B0K60G5KWM,青木花舍·团建·露营·年会,体育设施,体育休闲服务;休闲场所;露营地,林岳大道与汉溪大道交叉口南360米,桂城街道,113.251838,22.991325,4.4,False,,体育休闲
B0IRZ53IHL,雾时之森·团建聚会·露营烧烤·派对轰趴,体育设施,体育休闲服务;休闲场所;露营地,里水镇和顺贤僚南洲村八仓南,里水镇,113.178328,23.241521,4.4,False,,体育休闲
B0JG9DAPV7,红LiveHouse(佛山店),自然景观,体育休闲服务;娱乐场所;酒吧,建设大道与兴联北路交叉口西220米,里水镇,113.20075,23.140834,4.7,False,,体育休闲
B0LU2CV967,W · Super Live Show(超级音乐秀场),体育设施,体育休闲服务;娱乐场所;酒吧,桂城街道佛平四路8号潮集PARK C馆,桂城街道,113.18596,23.032682,4.5,False,,体育休闲
B0IRYUBYVX,多元宝贝世界(龙汇店),休闲娱乐,体育休闲服务;休闲场所;游乐场,大沥镇龙汇大厦1F-3F,大沥镇,113.144766,23.110977,4.5,False,,体育休闲
B0LUHKCJXU,稻田派对空间paddyparty,体育设施,体育休闲服务;娱乐场所;酒吧,海五路收费站(出口方向)东50米,桂城街道,113.173012,23.049052,4.5,False,,体育休闲
B0LBC5PNUS,星元地带Camping,体育设施,体育休闲服务;体育休闲服务场所;体育休闲服务场所,松岗南国桃园西门显子岗村桃园东路显子岗段10号之2号,大沥镇,113.092237,23.171263,4.5,False,,体育休闲
B0LUKXY2Z9,佛山W台球(旗舰店),自然景观,体育休闲服务;运动场馆;台球厅,华翠北路63号灯湖天地(龙瓴中心)2层,桂城街道,113.163851,23.048698,4.7,False,,体育休闲
B0GKOC83LX,泽木体育馆,体育设施,体育休闲服务;运动场馆;综合体育馆,里水镇洲村凤江路1号,里水镇,113.18908,23.171146,4.5,False,,体育休闲
B0LR2H5KUR,虾开心钓虾馆·露天小酒馆,体育设施,体育休闲服务;休闲场所;垂钓园,桂城街道石肯一村东地段厂房18号之133号,桂城街道,113.16546,23.012707,4.5,False,,体育休闲
B0FFFT33Y8,上海村足球场,体育设施,体育休闲服务;运动场馆;足球场,桂城街道上海村足球场,桂城街道,113.176269,23.020042,4.5,False,,体育休闲
B02F50WH56,二月花高尔夫球俱乐部,体育设施,体育休闲服务;高尔夫相关;高尔夫球场,平洲夏南二石岸口新村16号,桂城街道,113.179176,23.063203,4.5,False,,体育休闲
B0KUDCFGI1,星瑞羽毛球体育中心,体育设施,体育休闲服务;体育休闲服务场所;体育休闲服务场所,保利天汇正对面,桂城街道,113.176669,23.05126,4.6,False,,体育休闲
B0KGLUU1M1,桂城半月岛生态公园-露营地,自然景观,体育休闲服务;休闲场所;露营地,,桂城街道,113.165078,22.998227,4.4,False,,体育休闲
B0FFGMDASD,平稳村篮球场,体育设施,体育休闲服务;运动场馆;篮球场馆,桂城街道(夏西地铁站A口步行430米),桂城街道,113.171488,23.033225,4.5,False,,体育休闲
B0FFHPGHPY,佳高羽毛球乒乓球馆,体育设施,体育休闲服务;体育休闲服务场所;体育休闲服务场所,南桂东路63号,桂城街道,113.151917,23.034908,4.6,False,,体育休闲
B0L36Z9RTE,爆笑虫子城市主题乐园,休闲娱乐,体育休闲服务;休闲场所;游乐场,桂城街道海八东路28号宏宇商业中心,桂城街道,113.154201,23.069148,4.6,False,,体育休闲
B0GR0CWKSA,肥佬钓虾场(金沙洲店),体育设施,体育休闲服务;体育休闲服务场所;体育休闲服务场所,御洲三街12号101铺,里水镇,113.210942,23.143071,4.4,False,,体育休闲
B0LRNBJ0OS,万达影城(佛山南海万科广场店),自然景观,体育休闲服务;影剧院;电影院,南海万科广场店4F万达影城,桂城街道,113.153723,23.036415,4.4,False,,体育休闲
B0H0LHHA7S,林溪生态农庄,体育设施,体育休闲服务;体育休闲服务场所;体育休闲服务场所,狮山镇小小路,狮山镇,112.977041,23.109676,4.5,False,,体育休闲
B0FFKATPC9,西樵山桃花源农家乐,自然景观,体育休闲服务;休闲场所;休闲场所,西樵镇西樵山桃花园云路村,西樵镇,112.972411,22.921564,4.3,False,,体育休闲
B0JRGS1QBM,乐动力黄岐文体中心,体育设施,体育休闲服务;体育休闲服务场所;体育休闲服务场所,大沥镇黄岐渤海路35号黄岐文体中心L401,大沥镇,113.18169,23.113157,4.5,False,,体育休闲
B0JKBCNVVK,大板牙主题乐园,休闲娱乐,体育休闲服务;休闲场所;游乐场,桂城街道海八西路13号时代爱车汇3层,桂城街道,113.127016,23.068857,4.4,False,,体育休闲
B0KRYHOKUD,脉铂影城(佛山金铂中心店),自然景观,体育休闲服务;影剧院;电影院,佛山金铂中心6楼,桂城街道,113.156283,23.011177,4.6,False,,体育休闲
B02F503A9K,大浩湖度假区,自然景观,体育休闲服务;度假疗养场所;度假村,广佛公路大沥谢边路段高尔夫球场路,大沥镇,113.056383,23.101668,4.4,False,,体育休闲
B0I21HQ824,TOP LEVEL顶级娱乐(金沙洲万达广场店),公园绿地,体育休闲服务;娱乐场所;娱乐场所,黄岐建设大道中段金沙洲万达广场五层,大沥镇,113.197281,23.140585,4.5,False,,体育休闲
B0FFKUBVRC,西樵樵海港农庄,体育设施,体育休闲服务;休闲场所;休闲场所,西岸大槎村三队(资产公司路口入80米),西樵镇,112.885442,22.872652,4.4,False,,体育休闲
B0H0Z7VXC9,南海体育中心游泳馆,体育设施,体育休闲服务;运动场馆;游泳馆,狮山镇博爱中路62号南海体育中心,狮山镇,113.008074,23.117587,4.5,False,,体育休闲
B0L6MMVFWC,上林苑销售中心,体育设施,体育休闲服务;运动场馆;游泳馆|购物服务;购物相关场所;购物相关场所|生活服务;生活服务场所;生活服务场所,狮山小塘三环东路9号,狮山镇,112.987907,23.086273,4.5,False,,体育休闲
B0JK9MDG0U,佛山市众米乐谷文化旅游有限公司,自然景观,体育休闲服务;休闲场所;游乐场,里水镇蒲南大道14号众米乐谷,里水镇,113.108591,23.197113,4.2,False,,体育休闲
B0L24PNTF6,飙风潮玩娱乐城(网红店),体育设施,体育休闲服务;娱乐场所;娱乐场所,桂城街道夏西大道夏教市场二楼,桂城街道,113.170575,23.046275,4.4,False,,体育休闲
B0LA5CSQY0,紅 LIVESHOW(佛山桂城店),自然景观,体育休闲服务;娱乐场所;酒吧,家天下广场2区首层,桂城街道,113.153306,23.041359,4.7,False,,体育休闲
B0FFHHU1B2,万达影城(悦汇广场店),公园绿地,体育休闲服务;影剧院;电影院,南海大道北81号悦汇广场·南海A区5层,桂城街道,113.141756,23.030225,4.4,False,,体育休闲
B0L1DHUAGJ,超兔健身·24小时,体育设施,体育休闲服务;体育休闲服务场所;体育休闲服务场所,大沥镇毅贤路10号兴海大厦2-1座106号,大沥镇,113.146237,23.110245,4.5,False,,体育休闲
B0KUG9F3NJ,星野云端营地,体育设施,体育休闲服务;休闲场所;露营地,庆怡路与平海路交叉口东180米,桂城街道,113.17202,23.019113,4.4,False,,体育休闲
B0FFGB3B4J,润禾山庄,自然景观,体育休闲服务;休闲场所;休闲场所,丹灶镇苏坑村桂丹路旁岗咀,丹灶镇,112.900731,23.050875,4.4,False,,体育休闲
B0FFF9S1FN,金逸影城(鹏瑞利IMAX店),体育设施,体育休闲服务;影剧院;电影院,桂城季华七路与澜桂路交叉口鹏瑞利季华广场3层A3-A42,桂城街道,113.153143,23.011927,4.5,False,,体育休闲
B0KKKZQODX,稻梦花田露营地·钓鱼钓虾采摘·团建烤全羊,体育设施,体育休闲服务;休闲场所;休闲场所,狮山镇机场路888号,狮山镇,113.093499,23.070791,4.5,False,,体育休闲
B0JGP7LVUY,向峰钓鱼场,体育设施,体育休闲服务;休闲场所;垂钓园,科宝南路与科韵中路交叉口西北220米,狮山镇,113.030256,23.112997,4.3,False,,体育休闲
B0FFMHXRK9,聚龙庄顺德菜农庄,体育设施,餐饮服务;中餐厅;中餐厅|体育休闲服务;休闲场所;休闲场所,胜聚路聚龙北桥旁,桂城街道,113.167223,23.065358,4.6,False,,体育休闲
B0FFGW033Z,大冲白露岗篮球场,体育设施,体育休闲服务;体育休闲服务场所;体育休闲服务场所,里水镇大冲村,里水镇,113.14055,23.160307,4.5,False,,体育休闲
B0FFFEOTHT,小白鸭休闲会所,体育设施,生活服务;洗浴推拿场所;洗浴推拿场所|体育休闲服务;体育休闲服务场所;体育休闲服务场所,狮山镇罗村机场路口,狮山镇,113.102646,23.070445,4.5,False,,体育休闲
B0HGNDMKG0,飞鸿馆(西樵山体育馆),自然景观,购物服务;购物相关场所;购物相关场所|体育休闲服务;体育休闲服务场所;体育休闲服务场所,西樵镇锦湖大道6号,西樵镇,112.959064,22.938401,4.5,False,,体育休闲
B0FFJ1HUB8,大王锋海钓场,体育设施,体育休闲服务;体育休闲服务场所;体育休闲服务场所,桃园西路,狮山镇,112.995932,23.149437,4.5,False,,体育休闲
B0KBKRDMK7,高浩电竞(保利水城店),体育设施,体育休闲服务;娱乐场所;网吧,桂城街道灯湖西路20号保利商业水城三层3B1073B1083B1093B110号铺,桂城街道,113.148012,23.060674,4.5,False,,体育休闲
B0FFHF974J,想唱就唱互动式KTV,体育设施,体育休闲服务;娱乐场所;KTV,黄岐南海路西围村综合楼B2座(近御龙会所),大沥镇,113.192699,23.106769,4.6,False,,体育休闲
B0JAXN4490,温伴团建·烧烤·露营·采摘(贤鲁岛店),自然景观,体育休闲服务;体育休闲服务场所;体育休闲服务场所,金贤路与贤鲁岛绿道交叉口西北120米,里水镇,113.168032,23.247102,4.4,False,,体育休闲
B0FFFD3A5L,英皇w台球,体育设施,体育休闲服务;运动场馆;台球厅,平洲大德东信南路裕兴家具2-3楼,桂城街道,113.195837,23.033163,4.5,False,,体育休闲
B0G1GCNI8E,山语湖俱乐部,自然景观,体育休闲服务;运动场馆;运动场所,里水和顺美景大道中信山语湖内,里水镇,113.113226,23.281253,4.5,False,,体育休闲
B0FFH2QW56,静心谷钓鱼场,体育设施,体育休闲服务;休闲场所;垂钓园,信息大道中右转牛西村路口进入约50米再右转进航农场方向,狮山镇,113.038393,23.1661,4.1,False,,体育休闲
B0JA9NFIHE,环影天地影城(映月湖环宇城店),自然景观,体育休闲服务;影剧院;电影院,石龙南路6号映月湖环宇城F4层,桂城街道,113.187233,23.032945,4.4,False,,体育休闲
B0LDZ5UXU0,一品烧农庄,体育设施,餐饮服务;中餐厅;中餐厅|体育休闲服务;休闲场所;休闲场所,庆云大道西岸学校斜对面,西樵镇,112.886636,22.868583,4.7,False,,体育休闲
B02F5078DO,保利国际影城(佛山南海店),自然景观,体育休闲服务;影剧院;电影院,桂城灯湖东路20号保利水城购物中心F3层,桂城街道,113.148416,23.061302,4.5,False,,体育休闲
B0FFF4ZPI7,大高村游泳场,体育设施,体育休闲服务;运动场馆;游泳馆,狮山镇狮西大高村,狮山镇,112.954224,23.180544,4.5,False,,体育休闲
B0I6TSN9QO,高浩电竞(永旺天街店),体育设施,体育休闲服务;娱乐场所;网吧,大沥镇毅贤路3号广佛智城永旺天街五期6号楼2楼(海底捞门口电梯上2楼),大沥镇,113.146075,23.112275,4.7,False,,体育休闲
B0I0YUVGMW,佛山擎天攀岩馆,自然景观,体育休闲服务;运动场馆;运动场所,黄岐名雅路1-3号中联宝鼎创意产业园D区08,大沥镇,113.175611,23.133671,4.4,False,,体育休闲
B0J0GRAL8G,开心麻花·花花世界佛山,自然景观,体育休闲服务;影剧院;剧场,桂城海三路32号,桂城街道,113.145574,23.047157,4.6,False,,体育休闲
B0FFME1MX0,乐8运动馆,体育设施,体育休闲服务;运动场馆;运动场所,狮山镇罗村南湖二路4号钜隆风度广场,狮山镇,113.058122,23.058054,4.4,False,,体育休闲
B0H2KXDY9S,美乐城KTV,体育设施,体育休闲服务;娱乐场所;KTV,江心一街与横沙路交汇处,里水镇,113.171039,23.11612,4.4,False,,体育休闲
B0FFJTFFG9,新活力足球场,体育设施,体育休闲服务;体育休闲服务场所;体育休闲服务场所,三洲工业区4座5号正东方向100米,桂城街道,113.200447,23.050627,4.5,False,,体育休闲
B0L2B5JS5O,莆田非遗小吃,非遗体验,餐饮服务;中餐厅;中餐厅,盈丰楼南门旁,桂城街道,113.213539,23.019256,3.6,False,,关键词:非遗
B0LUJCAYEY,云涧瑜艺非遗手作体验馆,非遗体验,体育休闲服务;体育休闲服务场所;体育休闲服务场所,佛平二路148号桂城街道雷岗街景南6座首层二层三层,桂城街道,113.149082,23.038745,4.0,False,,关键词:非遗
B0LR3ZB4WF,化州非遗隔水蒸鸡捞粉,非遗体验,餐饮服务;中餐厅;中餐厅,西樵镇北张开发区振兴街a1座6号,西樵镇,112.97625,22.952957,4.0,False,,关键词:非遗
B0LAGUUCEX,非遗盆菜研发基地,非遗体验,公司企业;公司企业;公司企业,平海路与庆安路交叉口西南60米,桂城街道,113.169712,23.022997,0,False,,关键词:非遗
B0L2O5VOZI,麦边非遗传承龙狮训练基地,非遗体验,科教文化服务;培训机构;培训机构,东约路与华辉东路交叉口东北280米,里水镇,113.164075,23.114625,3.9,True,醒狮,关键词:非遗
B0LDTO8LPV,神草传奇(非遗头疗植物养发馆),非遗体验,生活服务;美容美发店;美容美发店,狮山镇科技西路恒大翡翠华庭118号,狮山镇,113.004201,23.106446,4.1,False,,关键词:非遗
B0HG0L38JQ,佛山非遗洪拳馆,自然景观,体育休闲服务;运动场馆;运动场所,文林线西北40米,桂城街道,113.243572,22.998498,4.4,True,洪拳,关键词:非遗
B0KRA5DBUD,千年艾非遗灸馆(桂城店),非遗体验,医疗保健服务;医疗保健服务场所;医疗保健服务场所,桂城街道康怡花园4期2号铺,桂城街道,113.191969,23.033638,3.6,False,,关键词:非遗
B0KK9SGJB1,发仔醋坊·非遗臭屁醋(壹品广场店),非遗体验,购物服务;购物相关场所;购物相关场所,桂城怡海路南海壹品广场12号楼03商铺,桂城街道,113.159707,23.020583,4.4,False,,关键词:非遗
B0KUR71TX6,中国数字非遗课题组佛山市工作站,自然景观,政府机构及社会团体;政府机关;地市级政府及事业单位,南新二路20号2层209-210室,桂城街道,113.145301,23.025327,0,False,,关键词:非遗
B0LG7AVMDB,肆季·广西非遗酸嘢(里水佳明广场店),非遗体验,餐饮服务;中餐厅;中餐厅,里水大道中76号佳明广场B1层,里水镇,113.147405,23.169988,3.7,False,,关键词:非遗
B0KRZSEDNT,麦边非遗传承龙狮训练基地停车场,非遗体验,交通设施服务;停车场;公共停车场,东约路与华辉东路交叉口东北260米,里水镇,113.164033,23.114413,0,True,醒狮,关键词:非遗
B0L3X71NN7,千年艾·非遗灸馆,非遗体验,医疗保健服务;医疗保健服务场所;医疗保健服务场所,新胜路与南港路交叉口北120米,桂城街道,113.199994,23.03924,0,False,,关键词:非遗
B0K01C818A,爷爷不泡茶NOYEYENOTEA(佛山南海万科广场店),自然景观,餐饮服务;冷饮店;冷饮店,桂城街道桂澜中路23号万科金域国际花园10座负一层2B-48-1号商铺,桂城街道,113.154404,23.035505,4.5,False,,关键词:非遗
B0LG5U3AC7,爷爷不泡茶NOYEYENOTEA(佛山伟业兴隆广场店),自然景观,餐饮服务;冷饮店;冷饮店,大沥大沥镇振兴路13号伟业华誉豪庭13栋1F01号铺,大沥镇,113.119122,23.106145,4.3,False,,关键词:非遗
B0LBDSC6FO,爷爷不泡茶NOYEYENOTEA(佛山南海万达广场店),自然景观,餐饮服务;冷饮店;冷饮店,南海万达广场金街1楼(4号门旁),桂城街道,113.158792,23.063591,4.5,False,,关键词:非遗
B0KKS7457V,爷爷不泡茶NOYEYENOTEA(佛山大沥永旺梦乐城店),自然景观,餐饮服务;冷饮店;冷饮店,联滘路13号,大沥镇,113.144948,23.114362,4.3,False,,关键词:非遗
B0FFHONDEC,牛牛西厨·牛排餐厅(友邦金融中心店),其他,餐饮服务;外国餐厅;外国餐厅,海七路友邦金融中心二座m层A单元,桂城街道,113.151259,23.063095,4.4,False,,关键词:非遗
B0L0H1SAMG,爷爷不泡茶NOYEYENOTEA(佛山里水嘉洲广场店),自然景观,餐饮服务;冷饮店;冷饮店,里水大道中76号嘉洲广场(佛山南海里水店),里水镇,113.147625,23.170075,4.2,False,,关键词:非遗
B0K0P5W2TW,爷爷不泡茶NOYEYENOTEA(佛山黄岐金铂天地店),自然景观,餐饮服务;冷饮店;冷饮店,大沥镇黄岐段广佛路121号黄岐金铂天地一层141号商铺,大沥镇,113.187966,23.109414,4.3,False,,关键词:非遗
B0LR5SA82L,爷爷不泡茶NOYEYENOTEA(佛山金沙洲金铂天地店),自然景观,餐饮服务;冷饮店;冷饮店,建设大道金铂天地一层,里水镇,113.200164,23.142893,4.3,False,,关键词:非遗
B0JRKMVGXF,广东省非物质文化遗产佛山咏春拳东二义咏堂,自然景观,风景名胜;风景名胜;风景名胜,东二村南街南二巷与东二村南街北二巷交叉口东80米,桂城街道,113.160155,23.022605,3.1,True,咏春拳,关键词:非遗
B0KRJU5TTE,煲仔正·老广州煲仔饭(南海万益广场店),公园绿地,餐饮服务;餐饮相关场所;餐饮相关,黄岐建设大道33号5栋103铺,大沥镇,113.201516,23.143153,4.2,False,,关键词:非遗
B0IUD5JAZE,牛牛西厨(大沥永旺梦乐城店),其他,餐饮服务;外国餐厅;西餐厅(综合风味),大沥镇联滘广佛智城滘口路13号永旺梦乐城(大沥店)1F层,大沥镇,113.143625,23.114647,4.1,False,,关键词:非遗
B0LK61M6K0,佛山市南海区狮山镇联星社区非物质文化遗产传承馆,自然景观,科教文化服务;科教文化场所;科教文化场所,联星大道与上二旧区街交叉口东南40米,狮山镇,113.093885,23.059998,3.4,False,,关键词:非遗
B0LAZCXXNV,煲仔正·老广州煲仔饭(永旺梦乐城店),其他,餐饮服务;快餐厅;快餐厅,大沥永旺梦乐城负一楼002号,大沥镇,113.144075,23.114675,4.1,False,,关键词:非遗
B0L2JH730J,松辰堂沙疗养生馆(狮山长华店),自然景观,医疗保健服务;医疗保健服务场所;医疗保健服务场所,博爱中路68号长华国际商业中心商业3座1711-1712房,狮山镇,112.999725,23.120375,4.1,False,,关键词:非遗
B0K127B069,煲仔正·老广州煲仔饭(佛山金铂中心店),自然景观,餐饮服务;餐饮相关场所;餐饮相关,桂城街道佛山金铂中心B2层B239铺,桂城街道,113.156386,23.011447,4.1,False,,关键词:非遗
B0KDMBZNZ3,煲仔正·老广州煲仔饭(千灯湖店),自然景观,餐饮服务;餐饮相关场所;餐饮相关,桂城街道海五路19号美华国际金融贸易中心负一层0009号商铺,桂城街道,113.151049,23.056049,4.3,False,,关键词:非遗
B0J3LHC0IG,煲仔正·老广州煲仔饭(佛山南海黄岐店),自然景观,餐饮服务;中餐厅;中餐厅,岐西路南矿大院,大沥镇,113.189639,23.11181,4.1,False,,关键词:非遗
B0LDTA5DA9,广东中医师承教育研究中心南海湾中医药传习基地,其他,科教文化服务;科研机构;科研机构,东西大道55号(南海湾研学营地内),西樵镇,112.877914,22.854775,0,False,,关键词:传习所
B0KKHU7DKL,饶宝莲剪纸艺术佛山孝德湖传承基地,自然景观,科教文化服务;科教文化场所;科教文化场所,麒岭路128号,狮山镇,113.058463,23.074045,3.4,False,,关键词:传承基地
B0FFKCIQYL,沙水村古村落,自然景观,风景名胜;风景名胜相关;旅游景点,广东省佛山市南海区丹灶镇沙水村东社坊7巷7号,丹灶镇,112.935246,23.046177,4.2,False,,关键词:古村
B0HRV7T4XT,太史第,自然景观,风景名胜;风景名胜相关;旅游景点,翰林湖农业公园内沙水古村落,丹灶镇,112.93488,23.047074,3.5,False,,关键词:古村
B0HG559LNQ,翰林埗头,自然景观,风景名胜;风景名胜相关;旅游景点,沙水村古村落内(西北角),丹灶镇,112.934289,23.046926,3.6,False,,关键词:古村
B0FFJMCPBJ,烟南古村,人文古迹,地名地址信息;地名地址信息;地名地址信息,南海区,西樵镇,112.958202,22.873595,0,False,,关键词:古村
B0JKU7MB2I,龙游古村,自然景观,风景名胜;风景名胜;风景名胜,九江镇烨欣学车训练场(沙咀一村二文化楼对面),九江镇,112.999633,22.863379,4.0,False,,关键词:古村
B0FFMEE0UE,贤僚古村,自然景观,风景名胜;风景名胜相关;旅游景点,里水镇贤鲁岛内,里水镇,113.171336,23.259766,3.7,False,,关键词:古村
B0LGYC6XT8,赤山古村文化旅游景区,自然景观,风景名胜;风景名胜;风景名胜,村前路与赤山大道交叉口西北60米,里水镇,113.138763,23.217942,3.8,False,,关键词:古村
B0FFLJYKEI,西樵镇-醒狮之乡,自然景观,风景名胜;风景名胜相关;旅游景点,西樵镇,西樵镇,112.978375,22.938019,3.6,True,醒狮,关键词:古村
B0FFK98ZHK,汤村南社大有书塾汉润堂,自然景观,风景名胜;风景名胜相关;旅游景点,上社大街,里水镇,113.137808,23.289788,3.4,False,,关键词:古村
B0FFH4A4FE,长庚门,自然景观,风景名胜;风景名胜相关;旅游景点,狮山镇万石大莲塘村文化室附近,狮山镇,113.090677,23.189966,3.4,False,,关键词:古村
B0FFJYGJTV,烟桥古村,自然景观,风景名胜;风景名胜相关;旅游景点,九江镇烟桥村道,九江镇,112.959574,22.872088,4.4,False,,关键词:古村
B0LGFOTL9C,大谷余氏宗祠,自然景观,风景名胜;风景名胜;寺庙道观,大谷上街与上东三村路交叉口西北60米,丹灶镇,113.043093,22.828789,2.3,False,,关键词:祠堂
B0LGTX12VB,梁氏大宗祠,自然景观,风景名胜;风景名胜;寺庙道观,联江路与大展线交叉口西240米,里水镇,113.131515,23.153857,3.1,False,,关键词:祠堂
B0LR74HVZT,宏五吴氏宗祠,其他,生活服务;生活服务场所;生活服务场所,宏岗中心东街与宏岗中心西街交叉口北60米,里水镇,113.142698,23.226249,3.3,False,,关键词:祠堂
B0LKXPI5QF,梁氏宗祠,自然景观,风景名胜;风景名胜;寺庙道观,坎南五斗田街与联江路交叉口东220米,里水镇,113.125926,23.13648,2.5,False,,关键词:祠堂
B0LUL56H6T,潘氏宗祠,自然景观,风景名胜;风景名胜相关;旅游景点,潘合街一巷,大沥镇,113.112282,23.099299,3.9,False,,关键词:祠堂
B0LG0R2940,雷氏宗祠,自然景观,风景名胜;风景名胜;寺庙道观,沥西路与沥松线交叉口东北440米,大沥镇,113.114265,23.133316,3.3,False,,关键词:祠堂
B0LG31H75J,蔡氏宗祠,自然景观,风景名胜;风景名胜;寺庙道观,金贤路与金溪路交叉口西160米,里水镇,113.137181,23.266758,3.5,False,,关键词:祠堂
B0LKSMI0I3,麻奢村潭边邓氏宗祠,自然景观,风景名胜;风景名胜;寺庙道观,大同路与三区路交叉口西360米,里水镇,113.127346,23.216866,3.8,False,,关键词:祠堂
B0LGO97V6J,上西村卢氏宗祠,自然景观,风景名胜;风景名胜;风景名胜,上东新村大道与田上线交叉口东南260米,大沥镇,113.114988,23.152041,3.7,False,,关键词:祠堂
B0LUTL3UGY,高氏大宗祠,其他,生活服务;生活服务场所;生活服务场所,向北大街与和鹤线交叉口东南180米,里水镇,113.121716,23.233691,4.0,False,,关键词:祠堂
B0LGTXZ0Y2,张氏宗祠,自然景观,风景名胜;风景名胜;寺庙道观,村面街与南园街交叉口北40米,里水镇,113.130883,23.296558,3.7,False,,关键词:祠堂
B0LG0R3J1A,李氏宗祠,自然景观,风景名胜;风景名胜;寺庙道观,麓湖一路与麓湖三路交叉口西380米,大沥镇,113.096916,23.171844,2.7,False,,关键词:祠堂
B0LRSZ4XKX,黎氏大宗祠,自然景观,风景名胜;风景名胜;寺庙道观,,丹灶镇,113.046636,22.903789,3.1,False,,关键词:祠堂
B0LG0R5O0I,吴氏大宗祠,自然景观,风景名胜;风景名胜;寺庙道观,广云路与文行村大街交叉口东南80米,大沥镇,113.07571,23.126967,3.3,False,,关键词:祠堂
B0LUJ9B7HE,瑶边周氏祠堂,自然景观,风景名胜;风景名胜;寺庙道观,和景南路与南水路交叉口东北440米,大沥镇,113.094266,23.260295,3.5,False,,关键词:祠堂
B0LGJLK1FB,黄氏宗祠,其他,生活服务;生活服务场所;生活服务场所,康泰南路与沙龙路辅路交叉口西240米,丹灶镇,113.027349,22.905154,2.8,False,,关键词:祠堂
B0LGV1Y2BQ,梁氏宗祠,其他,生活服务;生活服务场所;生活服务场所,教育路与起凤东路交叉口西北140米,大沥镇,113.084165,23.22823,3.5,False,,关键词:祠堂
B0LG0L6MPA,麦氏宗祠,自然景观,风景名胜;风景名胜;寺庙道观,猫大段与大猫线交叉口东北140米,丹灶镇,112.989832,22.896595,3.7,False,,关键词:祠堂
B0LG0R6HAB,李氏大宗祠,自然景观,风景名胜;风景名胜;寺庙道观,罗务路与沙坊一路交叉口北280米,丹灶镇,113.015703,23.041153,3.2,False,,关键词:祠堂
B0LG0R6J0T,黄氏宗祠,其他,生活服务;生活服务场所;生活服务场所,上约大街与蟹坑村上约大街交叉口东北240米,里水镇,113.199969,23.196204,3.4,False,,关键词:祠堂
B0LRPRREBD,巫氏宗祠,其他,生活服务;生活服务场所;生活服务场所,下街与上亨路交叉口东南120米,里水镇,113.163696,23.163712,3.8,False,,关键词:祠堂
B0LGFHPPI4,梁氏宗祠,其他,生活服务;生活服务场所;生活服务场所,岗西文体楼,里水镇,113.142236,23.130224,3.0,False,,关键词:祠堂
B0LG0L6RFG,李氏宗祠,自然景观,风景名胜;风景名胜;寺庙道观,文教路与文金横路交叉口西420米,里水镇,113.157028,23.244493,3.6,False,,关键词:祠堂
B0LUDRC0TN,伏水小宗祠,其他,生活服务;生活服务场所;生活服务场所,伏水村村头街与伏水村村头大街交叉口北20米,丹灶镇,112.899542,23.030172,3.3,False,,关键词:祠堂
B0LGJLS8JQ,梁氏宗祠,自然景观,风景名胜;风景名胜;寺庙道观,庄边村下街与工业大道交叉口北180米,丹灶镇,112.899825,23.032525,3.5,False,,关键词:祠堂
B0LG0L7ALK,大涡邓家邓氏宗祠,自然景观,风景名胜;风景名胜;寺庙道观,张家大街与丹横路交叉口南240米,狮山镇,112.905194,23.062748,3.4,False,,关键词:祠堂
B0LGJLPZY9,吴氏大宗祠,其他,生活服务;生活服务场所;生活服务场所,横江南街与横江大道交叉口南140米,狮山镇,112.912235,23.102417,4.1,False,,关键词:祠堂
B0LGZLWDSR,棋盘村陈氏宗祠(万元户纪念馆),自然景观,风景名胜;风景名胜;风景名胜,三村新街十二巷1号,狮山镇,112.904097,23.12378,3.9,False,,关键词:祠堂
B0LGUC52MK,傅氏宗祠,自然景观,风景名胜;风景名胜;风景名胜,江浦西路103号,丹灶镇,112.981742,22.925328,3.7,False,,关键词:祠堂
B0LG0R6E4A,李氏大宗祠,自然景观,风景名胜;风景名胜;寺庙道观,小塘工业大道与恒发商业街交叉口南280米,丹灶镇,112.99859,23.03494,3.2,False,,关键词:祠堂
B0LGTBWT1K,梁氏宗祠(荷涌村),自然景观,风景名胜;风景名胜;寺庙道观,丁家村文化楼东南侧110米,丹灶镇,112.983461,22.967184,3.7,False,,关键词:祠堂
B0LGHCO34S,烟南南水村吴氏宗祠,其他,生活服务;生活服务场所;生活服务场所,龙高路辅路与钢铁东二路交叉口北140米,西樵镇,112.955985,22.870267,4.0,False,,关键词:祠堂
B0LGTBYB6V,邓屋邓氏宗祠,自然景观,风景名胜;风景名胜;寺庙道观,官华路与小榄市场东四巷交叉口东440米,狮山镇,113.009534,23.171627,3.8,False,,关键词:祠堂
B0LG0L6MZH,北山村罗氏宗祠,自然景观,风景名胜;风景名胜;寺庙道观,桥梁公司东侧170米,狮山镇,113.005008,23.16331,3.5,False,,关键词:祠堂
B0LG0R5OL6,孔村宗祠,自然景观,风景名胜;风景名胜;寺庙道观,咏协胜机电设备有限公司佛山分公司东侧230米,里水镇,113.002868,23.153579,3.8,False,,关键词:祠堂
B0MBK5Q7UA,奇石村陈氏宗祠,自然景观,风景名胜;风景名胜;寺庙道观,小塘工业大道奇石村奇石牌坊北侧,狮山镇,112.984842,23.061732,2.8,False,,关键词:祠堂
B0LGUZ98RF,泮边杨氏大宗祠,自然景观,风景名胜;风景名胜;风景名胜,虹岭一路20号,狮山镇,113.003955,23.183889,3.7,False,,关键词:祠堂
B0LRDX7J69,郭氏祠堂,自然景观,风景名胜;风景名胜;寺庙道观,上安南约村,狮山镇,112.956494,23.082748,3.7,False,,关键词:祠堂
B0LG0L6RD3,吴氏宗祠,自然景观,风景名胜;风景名胜;寺庙道观,樵金北路与官陆线交叉口东200米,狮山镇,112.945955,23.090041,3.7,False,,关键词:祠堂
B0LGTXW17T,吴氏大宗祠,自然景观,风景名胜;风景名胜;寺庙道观,村前街与水口路交叉口南80米,狮山镇,112.943356,23.096264,3.1,False,,关键词:祠堂
B0LKOAFWKW,稔岗苏氏宗祠,自然景观,风景名胜;风景名胜;寺庙道观,河稔线与朝阳路交叉口西北320米,西樵镇,112.907725,22.939475,2.7,False,,关键词:祠堂
B0LG0R6EI0,劳氏宗祠,自然景观,风景名胜;风景名胜;寺庙道观,十下线与樵金北路交叉口东200米,狮山镇,112.936082,23.103269,3.1,False,,关键词:祠堂
B0LGTBVY6F,帅氏宗祠,自然景观,风景名胜;风景名胜;寺庙道观,西联开发区东侧190米,狮山镇,112.926838,23.071174,3.7,False,,关键词:祠堂
B0LUMCHTDR,黄氏宗祠,自然景观,风景名胜;风景名胜;寺庙道观,金正东侧240米,西樵镇,112.890465,22.872471,3.7,False,,关键词:祠堂
B0LGNDU8X3,陈边宗祠,自然景观,风景名胜;风景名胜;寺庙道观,广云路与广狮线交叉口南320米,狮山镇,112.933381,23.145656,4.0,False,,关键词:祠堂
B0LRHA7DZK,西樵镇河溪村周家祠堂,自然景观,风景名胜;风景名胜;风景名胜,西樵镇河溪村周家祠堂(河溪西道牌坊下坡),西樵镇,112.893823,22.953859,3.7,False,,关键词:祠堂
B0LG0L29UE,洲头村徐氏宗祠,自然景观,风景名胜;风景名胜;寺庙道观,大板街与大道街交叉口东南60米,狮山镇,112.922127,23.120106,3.6,False,,关键词:祠堂
B0LG0L1UFZ,王氏宗祠,自然景观,风景名胜;风景名胜;寺庙道观,三槐里大街与文文线交叉口东120米,里水镇,113.152806,23.249035,4.0,False,,关键词:祠堂
B0LDBOEMZ1,叶氏宗祠,自然景观,风景名胜;风景名胜;寺庙道观,罗务路与沙坊一路交叉口北120米,丹灶镇,113.015862,23.039626,3.1,False,,关键词:祠堂
B0LBXKCGYB,西樵山陈家宗祠,自然景观,生活服务;生活服务场所;生活服务场所,儒溪上儒大街与羔儒线交叉口西420米,西樵镇,112.955788,22.90651,3.6,False,,关键词:祠堂
B0LBS5UDJF,儒溪村陈氏宗祠,自然景观,风景名胜;风景名胜;寺庙道观,儒溪方井村方井西南侧,西樵镇,112.953897,22.900263,3.5,False,,关键词:祠堂
B0LBS5O9I6,梁氏祠堂,自然景观,风景名胜;风景名胜;寺庙道观,教育路与桂业路交叉口西南160米,桂城街道,113.15693,23.007603,3.5,False,,关键词:祠堂
B0LBO64BTM,上安社区郭家经济社郭氏宗祠,自然景观,风景名胜;风景名胜;寺庙道观,郭家村前街与樵金北路交叉口西320米,狮山镇,112.954492,23.079326,3.6,False,,关键词:祠堂
B0LBO62OG9,刘氏宗祠,其他,生活服务;生活服务场所;生活服务场所,便沙新街与华联线交叉口东南60米,丹灶镇,112.960016,22.961787,3.6,False,,关键词:祠堂
B0LB7HF22P,胡氏宗祠,其他,生活服务;生活服务场所;生活服务场所,联江路与抱伦大道交叉口东南40米,里水镇,113.124286,23.138016,2.9,False,,关键词:祠堂
B0LB7HEY0E,三约村陶氏宗祠,其他,生活服务;生活服务场所;生活服务场所,广云路辅路与官华路交叉口西南200米,狮山镇,112.996614,23.133767,3.7,False,,关键词:祠堂
B0LB3SB62M,汤村龙氏宗祠,自然景观,风景名胜;风景名胜;寺庙道观,S47广佛江珠高速入口与中信大道交叉口东南240米,里水镇,113.138344,23.283829,2.9,False,,关键词:祠堂
B0LB1U43VO,老氏七世祠堂,自然景观,风景名胜;风景名胜;风景名胜,朗星管理区世老村儒宗里4号,丹灶镇,113.046286,22.905307,3.7,False,,关键词:祠堂
B0LAP7M3XS,张氏宗祠,自然景观,风景名胜;风景名胜;寺庙道观,村口东大街与上朗段交叉口西240米,丹灶镇,112.926469,22.991649,2.6,False,,关键词:祠堂
B0LAP7LRM6,陈氏宗祠,其他,生活服务;生活服务场所;生活服务场所,新石线与石澎大道交叉口西北360米,狮山镇,113.038127,23.218606,2.8,False,,关键词:祠堂
B0LAP7LQFD,黎氏宗祠,自然景观,风景名胜;风景名胜;寺庙道观,村口东大街与上朗段交叉口西北160米,丹灶镇,112.927615,22.992514,2.9,False,,关键词:祠堂
B0LAP7LPVX,大涡张氏大宗祠,自然景观,风景名胜;风景名胜;寺庙道观,张家大街与丹横路交叉口南320米,狮山镇,112.904684,23.062162,3.8,False,,关键词:祠堂
B0LAP7LPS6,汤村村汤氏宗祠,自然景观,风景名胜;风景名胜;寺庙道观,S47广佛江珠高速入口与金小线交叉口北360米,里水镇,113.137562,23.289156,3.4,False,,关键词:祠堂
B0LAP7LIVW,邝氏宗祠,自然景观,风景名胜;风景名胜;寺庙道观,新凤线与478乡道交叉口南400米,狮山镇,112.957102,23.206291,3.4,False,,关键词:祠堂
B0LAP7L99F,梁氏宗祠,其他,生活服务;生活服务场所;生活服务场所,庆云街与朝新路交叉口南500米,西樵镇,112.976729,22.933303,3.2,False,,关键词:祠堂
B0LAP7F790,霍氏宗祠,自然景观,风景名胜;风景名胜;寺庙道观,村前大街与上朗段交叉口东220米,丹灶镇,112.930983,22.991846,2.8,False,,关键词:祠堂
B0LANRZ6IX,易氏宗祠,其他,生活服务;生活服务场所;生活服务场所,环江东路与伴北路交叉口西南180米,里水镇,113.132917,23.178755,3.7,False,,关键词:祠堂
B0LANRY0FP,汤氏宗祠,其他,生活服务;生活服务场所;生活服务场所,团结街与金兰街交叉口东北180米,里水镇,113.169389,23.261816,3.6,False,,关键词:祠堂
B0LAKXQ74V,陈氏宗祠,自然景观,风景名胜;风景名胜;寺庙道观,西鸦村活动中心东侧50米,大沥镇,113.109199,23.162757,3.2,False,,关键词:祠堂
B0LAKXNTKA,灶岗袁氏大宗祠,自然景观,风景名胜;风景名胜;寺庙道观,灶岗士多店西侧200米,里水镇,113.122619,23.255619,3.8,False,,关键词:祠堂
B0LAKXNT8S,陈氏宗祠,自然景观,风景名胜;风景名胜;寺庙道观,中区二路横二街与北区一路交叉口东420米,里水镇,113.122748,23.14405,2.9,False,,关键词:祠堂
B0LAKXMZ06,李氏大宗祠,自然景观,风景名胜;风景名胜;寺庙道观,丹灶涡南村,丹灶镇,112.934511,23.030708,3.3,False,,关键词:祠堂
B0LAB7ZPE1,赵氏大宗祠,自然景观,风景名胜;风景名胜;寺庙道观,羔儒线与儒溪上儒大街交叉口东北140米,西樵镇,112.960923,22.906635,3.4,False,,关键词:祠堂
B0LAB7ZAIG,塘口黄氏大宗祠,自然景观,风景名胜;风景名胜;寺庙道观,樵金中路与南达路交叉口西南260米,丹灶镇,112.96424,23.030452,3.5,False,,关键词:祠堂
B0LAB74BPM,周氏宗祠,自然景观,风景名胜;风景名胜;寺庙道观,元周南头街与元东新街交叉口北220米,里水镇,113.138524,23.282661,3.0,False,,关键词:祠堂
B0LAA7OH8Q,姓李祠堂,人文古迹,生活服务;生活服务场所;生活服务场所,邓岗通道与姓苏路交叉口西40米,里水镇,113.153984,23.18686,2.7,False,,关键词:祠堂
B0LAA7OG4P,靖波潘宗祠,自然景观,风景名胜;风景名胜;寺庙道观,新堤西路与璜矶大道交叉口西北480米,西樵镇,112.960265,22.846404,3.7,False,,关键词:祠堂
B0LAA7O6ON,九江镇新龙村关氏宗祠,自然景观,风景名胜;风景名胜;寺庙道观,新涌三路与新龙路交叉口西20米,九江镇,113.001695,22.85474,3.7,False,,关键词:祠堂
B0LA7UW5N7,原氏宗祠,自然景观,风景名胜;风景名胜;风景名胜,蟠溪路1号,狮山镇,112.902057,23.064574,3.0,False,,关键词:祠堂
B0LA5RN8X1,邵边邵氏大宗祠,自然景观,风景名胜;风景名胜;风景名胜,佛山一环路与广佛新干线交叉口西南300米,里水镇,113.163884,23.099559,4.1,False,,关键词:祠堂
B0LA5CV38S,小布村黄氏宗祠,自然景观,风景名胜;风景名胜;寺庙道观,北园街与村面街交叉口西280米,里水镇,113.126909,23.299799,3.8,False,,关键词:祠堂
B0LA4R9AHR,村尾村祠堂,自然景观,风景名胜;风景名胜相关;旅游景点,深深金属制品有限公司南侧240米,丹灶镇,112.956927,23.01563,3.4,False,,关键词:祠堂
B0LA4R84C1,李氏宗祠,其他,生活服务;生活服务场所;生活服务场所,西便大街与良溪直街交叉口西南140米,桂城街道,113.166395,23.049936,3.9,False,,关键词:祠堂
B0L6PMC3OA,何氏宗祠,自然景观,风景名胜;风景名胜;寺庙道观,海滨路9号街前8号,丹灶镇,112.922918,23.040759,3.5,False,,关键词:祠堂
B0L6CUJXNP,白氏宗祠,自然景观,风景名胜;风景名胜;寺庙道观,科技东路与科普中路交叉口东南340米,狮山镇,113.018208,23.099057,3.8,False,,关键词:祠堂
B0L67GT7X9,梁氏大宗祠,自然景观,风景名胜;风景名胜相关;旅游景点,直涌路与中村路交叉口东南280米,桂城街道,113.15865,23.002964,3.8,False,,关键词:祠堂
B0L66MLIBR,邝氏大宗祠,自然景观,风景名胜;风景名胜;寺庙道观,汀三线与纵向六路交叉口西南180米,狮山镇,113.009027,23.208234,4.1,False,,关键词:祠堂
B0L3X92DND,狮西华凤祠堂,自然景观,风景名胜;风景名胜;寺庙道观,上足五金东侧120米,狮山镇,112.962103,23.184451,3.7,False,,关键词:祠堂
B0L3SB31ZW,谢氏宗祠,其他,生活服务;生活服务场所;生活服务场所,东头大街与蟠溪路交叉口西南160米,狮山镇,112.902256,23.064158,3.1,False,,关键词:祠堂
B0L3HZ88Q1,平沙南社古圆祠堂,自然景观,风景名胜;风景名胜;寺庙道观,平沙岛南社村古圆祠堂,西樵镇,112.896194,22.921524,3.5,False,,关键词:祠堂
B0L3H79KVB,黎氏宗祠,其他,生活服务;生活服务场所;生活服务场所,S55广三高速与小塘立交交叉口北180米,狮山镇,112.931766,23.153022,3.0,False,,关键词:祠堂
B0L3ARVU4O,黄氏宗祠,其他,生活服务;生活服务场所;生活服务场所,罗务公路与中环路交叉口西南200米,狮山镇,113.034571,23.05857,3.6,False,,关键词:祠堂
B0L3AOZ1CZ,吴氏宗祠,其他,生活服务;生活服务场所;生活服务场所,金贤路与鲁岗村姓吴向阳新街交叉口北120米,里水镇,113.154405,23.264647,3.6,False,,关键词:祠堂
B0L39GQYWL,南房祠堂,人文古迹,生活服务;生活服务场所;生活服务场所,横下线与罗下东路交叉口西北80米,丹灶镇,112.979047,23.034895,2.7,False,,关键词:祠堂
B0L30RLT99,李氏宗祠,其他,生活服务;生活服务场所;生活服务场所,布新大道与339村道交叉口西400米,大沥镇,113.100012,23.211411,2.9,False,,关键词:祠堂
B0L30LLWUX,郭氏宗祠,自然景观,风景名胜;风景名胜;寺庙道观,东北旧街16巷1号,里水镇,113.201916,23.126441,3.6,False,,关键词:祠堂
B0L2VY7GR7,高边村吴氏宗祠,自然景观,风景名胜;风景名胜;寺庙道观,官和路29号,里水镇,113.12031,23.234466,3.6,False,,关键词:祠堂
B0L2PLQQJ4,南中祠堂,自然景观,风景名胜;风景名胜;风景名胜,大十麦西街与四约村北大街交叉口东160米,丹灶镇,112.964751,23.027353,3.3,False,,关键词:祠堂
B0L2MYWKSR,塘美村祠堂,自然景观,风景名胜;风景名胜;纪念馆,塘中路与二环路交叉口西北120米,狮山镇,112.973416,23.090644,2.9,False,,关键词:祠堂
B02F50YSSQ,西樵山宝峰寺,自然景观,风景名胜;风景名胜;国家级景点,西樵山风景名胜区内(北侧),西樵镇,112.977185,22.929907,4.4,False,,关键词:庙宇
B0FFFEOXJB,文武庙,自然景观,风景名胜;风景名胜;寺庙道观,南约正街5号公寓东北侧,狮山镇,113.019732,23.120735,4.3,False,,关键词:庙宇
B0G07R5LMM,石肯华光庙,自然景观,风景名胜;风景名胜;寺庙道观,石肯里冯坊,桂城街道,113.161371,23.014257,4.3,False,,关键词:庙宇
B0FFFEOUOF,财神庙,自然景观,风景名胜;风景名胜;寺庙道观,大沥镇罗村东街,大沥镇,113.126972,23.09602,4.1,False,,关键词:庙宇
B0K2DN2R1L,哪吒庙,自然景观,风景名胜;风景名胜;寺庙道观,孖庙直街9号,里水镇,113.20617,23.133453,4.3,False,,关键词:庙宇
B0FFH6CZHT,东约古庙,自然景观,风景名胜;风景名胜;寺庙道观,东二村南街南二巷与华翠南路交叉口西100米,桂城街道,113.163593,23.022909,4.1,False,,关键词:庙宇
B0FFMBZY55,四面佛,自然景观,风景名胜;风景名胜相关;旅游景点,樵园路白云洞景区宝峰寺内,西樵镇,112.977661,22.932561,3.9,False,,关键词:庙宇
B0FFH3T3C4,文武北帝古庙,自然景观,风景名胜;风景名胜;寺庙道观,季华东路67号,桂城街道,113.159148,23.013463,4.3,False,,关键词:庙宇
B0FFHHI9SO,西樵山风景名胜区-财神庙,自然景观,风景名胜;风景名胜;寺庙道观,山南路西樵山风景名胜区内(北侧),西樵镇,112.980616,22.928729,3.8,False,,关键词:庙宇
B0KUFCUTCV,云岩古寺,自然景观,风景名胜;风景名胜;寺庙道观,西樵镇环山大道西樵山风景名胜区(东北角),西樵镇,112.984321,22.917579,3.9,False,,关键词:庙宇
B0FFKCKW7M,平洲法源寺,自然景观,风景名胜;风景名胜;寺庙道观,平洲太平路25号,桂城街道,113.210098,23.031751,4.1,False,,关键词:庙宇
B0FFJ3UL0R,田心祖庙,自然景观,风景名胜;风景名胜;寺庙道观,显星大道,西樵镇,112.971861,22.89917,4.0,False,,关键词:庙宇
B0FFIXRGCA,侯王古庙,自然景观,风景名胜;风景名胜;寺庙道观,西樵镇联新革新村6队(民乐二桥旁),西樵镇,112.945511,22.974961,4.0,False,,关键词:庙宇
B0L67S1IK4,凤山古庙,自然景观,风景名胜;风景名胜;寺庙道观,官窑中学西南侧,狮山镇,113.082716,23.232721,4.0,False,,关键词:庙宇
B0GUYO4JHE,三忠古庙,自然景观,风景名胜;风景名胜;寺庙道观,荷桂路,狮山镇,112.92418,23.076727,4.0,False,,关键词:庙宇
B0G1AAZMIL,腾滘大社,自然景观,风景名胜;风景名胜;寺庙道观,上东腾滘村,丹灶镇,113.028212,22.834183,3.9,False,,关键词:庙宇
B0L03RDO24,汤村上社,自然景观,风景名胜;风景名胜;寺庙道观,上社大街与金小线交叉口东400米,里水镇,113.138515,23.292334,3.8,False,,关键词:庙宇
B0FFG1Q3NY,南国桃园-观音寺-龟蛇池,自然景观,风景名胜;风景名胜相关;旅游景点,南海观音寺内(北侧),大沥镇,113.10905,23.17661,3.8,False,,关键词:庙宇
B0J1JMRVI2,相公祖庙,自然景观,风景名胜;风景名胜;寺庙道观,先生古道5号,狮山镇,112.969011,23.065307,4.0,False,,关键词:庙宇
B0FFKCNCQQ,列圣古庙,自然景观,风景名胜;风景名胜;寺庙道观,大江村123号,里水镇,113.151418,23.138115,4.0,False,,关键词:庙宇
B0K229G3RK,龙母庙,自然景观,风景名胜;风景名胜相关;旅游景点,,丹灶镇,112.990348,22.823562,4.0,True,龙母诞,关键词:庙宇
B0FFL8EUMS,甘露庵,自然景观,风景名胜;风景名胜;风景名胜,泰山路与三山大道交叉口东南260米,桂城街道,113.237208,23.033254,4.0,False,,关键词:庙宇
B0FFH43JKC,三界古庙,自然景观,风景名胜;风景名胜;寺庙道观,陆边工业大道与西区一横路交叉口北140米,桂城街道,113.163217,23.077791,3.8,False,,关键词:庙宇
B02F50774O,康公庙,自然景观,风景名胜;风景名胜;寺庙道观,宣巷村大街,大沥镇,113.090138,23.059543,3.7,False,,关键词:庙宇
B0JBOHMTUC,观音公园,自然景观,风景名胜;风景名胜;寺庙道观,大沥镇黄岐六联北村大道北村观容路孖祠前1号(3号之一),大沥镇,113.178345,23.1238,3.9,False,,关键词:庙宇
B0H0U1TLZI,观音庙,自然景观,风景名胜;风景名胜;寺庙道观,新堤西路与南鲲大道交叉口北460米,西樵镇,112.925835,22.87188,4.0,False,,关键词:庙宇
B0LB1AYOYQ,孔溪天后三元古庙,自然景观,风景名胜;风景名胜;寺庙道观,石龙北路孔溪地塘停车场,桂城街道,113.18722,23.041628,3.9,False,,关键词:庙宇
B0KUBLPGAD,文昌庙,自然景观,风景名胜;风景名胜;寺庙道观,宏兴路与樵兴路交叉口东南420米,西樵镇,112.907281,22.953334,3.6,False,,关键词:庙宇
B0JROHWAY9,周将军庙,自然景观,风景名胜;风景名胜;寺庙道观,六社,桂城街道,113.052443,22.814172,3.9,False,,关键词:庙宇
B0FFL1S3EH,五显古庙,自然景观,风景名胜;风景名胜;寺庙道观,吉水大道与朝乐路交叉口西北240米,西樵镇,112.971013,22.943999,3.8,False,,关键词:庙宇
B0HASD7GCC,佛心堂,自然景观,风景名胜;风景名胜;寺庙道观,丹灶镇荷桂路帅边村向南七巷2号,丹灶镇,112.928391,23.070201,3.9,False,,关键词:庙宇
B0FFHSRA03,三忠庙,自然景观,风景名胜;风景名胜;回教寺,西城社区大果村,丹灶镇,112.895892,23.033964,3.7,False,,关键词:庙宇
B0FFH2EHM8,真武古庙,自然景观,风景名胜;风景名胜;寺庙道观,大沥镇南海全民健身体育公园,大沥镇,113.146665,23.074146,4.0,False,,关键词:庙宇
B0FFH47I5S,华佗古庙,自然景观,风景名胜;风景名胜;寺庙道观,海五西路与文华北路交叉口西南200米,桂城街道,113.123681,23.054839,3.7,False,,关键词:庙宇
B0K2XZ9QGF,少林寺,自然景观,风景名胜;风景名胜;寺庙道观,环山大道与显星大道交叉口西北240米,西樵镇,112.971329,22.907987,4.0,False,,关键词:庙宇
B0H3DHRVXJ,西樵山白云古寺-客堂,自然景观,生活服务;生活服务场所;生活服务场所,西樵山风景名胜区-白云古寺,西樵镇,112.964833,22.933936,3.7,False,,关键词:庙宇
B0FFHXLMS0,金刚寺,自然景观,风景名胜;风景名胜;寺庙道观,新堤东路东150米,丹灶镇,113.00947,22.820623,3.7,False,,关键词:庙宇
B0HA6HAYXO,先锋庙,自然景观,风景名胜;风景名胜;寺庙道观,上西工业园五路与新堤西路交叉口东北240米,西樵镇,112.973089,22.842647,3.8,False,,关键词:庙宇
B0FFIZMOR9,南国桃园-观音寺-荷香塔影,自然景观,风景名胜;风景名胜相关;旅游景点,凤凰路1号南海观音寺内(南侧),大沥镇,113.108206,23.174084,3.6,False,,关键词:庙宇
B0K2296S9A,观音庙,自然景观,风景名胜;风景名胜;寺庙道观,九江镇河清村,九江镇,112.980798,22.834935,3.7,False,,关键词:庙宇
B02F507CAF,观音堂,自然景观,风景名胜;风景名胜;寺庙道观,大谷观音堂路与上东三村路交叉口东北160米,丹灶镇,113.039085,22.827966,3.7,False,,关键词:庙宇
B02F507H7X,杜凤书纪念馆,自然景观,风景名胜;风景名胜;纪念馆,里水镇甘蕉和同村长塘街,里水镇,113.14415,23.170606,4.2,False,,关键词:纪念馆
B0JRZS17FK,黄少强先生纪念园,自然景观,风景名胜;风景名胜;风景名胜,,大沥镇,113.071515,23.190276,4.2,False,,关键词:纪念馆
B02F507C78,陈启沅纪念馆,自然景观,风景名胜;风景名胜;纪念馆,西樵镇简村,西樵镇,112.95341,22.945087,4.1,False,,关键词:纪念馆
B02F5042WI,叶正简纪念馆,自然景观,风景名胜;风景名胜;纪念馆,大布墟旧街大圃中学旁,大沥镇,113.078601,23.129456,3.9,False,,关键词:纪念馆
B0FFKBOBLV,黄少强故居,自然景观,风景名胜;风景名胜;纪念馆,官里路与思贤路二巷交叉口东南580米,大沥镇,113.090524,23.219449,3.8,False,,关键词:纪念馆
B0FFG29ZN7,胜利纪念亭,自然景观,风景名胜;风景名胜相关;旅游景点,西樵镇山南路西樵山风景名胜区内(东北角),西樵镇,112.993817,22.935557,3.7,False,,关键词:纪念馆
B0K3CCGRUK,陈李济李昇佐纪念馆,自然景观,风景名胜;风景名胜;纪念馆,风采大道与三门风采大道交叉口北480米,西樵镇,112.91585,22.917882,3.9,False,,关键词:纪念馆
B0FFH49O1P,兴贤文化纪念馆兴贤吴氏大宗祠筹委会,文化场馆,政府机构及社会团体;政府及社会团体相关;政府及社会团体相关,兴贤大道与后山大街交叉口西北40米,大沥镇,113.076702,23.124122,3.5,False,,关键词:纪念馆
B0HGFA61BV,区梦觉故居,自然景观,风景名胜;风景名胜;红色景区,西樵镇上金瓯社区松塘村华宁坊致和巷69号,西樵镇,112.912591,22.985221,3.9,False,,关键词:纪念馆
B02F50777S,邓氏纪念馆,自然景观,风景名胜;风景名胜;纪念馆,银狮路阖族祠(南侧),狮山镇,112.974921,23.173483,3.4,False,,关键词:纪念馆
B0HGOLVNFL,南海兴贤文化纪念馆,自然景观,风景名胜;风景名胜;纪念馆,广云路与文行村大街交叉口东南80米,大沥镇,113.075783,23.126973,3.6,False,,关键词:纪念馆
B0FFLEEUG4,雷锋纪念馆,自然景观,风景名胜;风景名胜;纪念馆,红星北路辅路与文化中路交叉口西北140米,狮山镇,113.004835,23.128335,0,False,,关键词:纪念馆
B0HG2U05AL,区梦觉生平事迹展陈馆,自然景观,风景名胜;风景名胜;红色景区,西樵镇松塘村翰林门前(积厚堂旁),西樵镇,112.912784,22.986892,3.6,False,,关键词:纪念馆
B0H3NH0IFS,何晃钊故居,自然景观,风景名胜;风景名胜;纪念馆,九江镇烟桥古村大巷尾三巷9号,九江镇,112.959356,22.874036,3.9,False,,关键词:纪念馆
B0LU2SVDOE,万元户纪念馆,自然景观,风景名胜;风景名胜;纪念馆,陈氏宗祠内,狮山镇,112.904081,23.123833,3.6,False,,关键词:纪念馆
B0LDCRVBG7,方献夫纪念馆,自然景观,风景名胜;风景名胜;纪念馆,樵丹北路32号,丹灶镇,112.915719,23.027375,3.6,False,,关键词:纪念馆
B0FFG1YSM5,关德兴纪念堂,自然景观,风景名胜;风景名胜;纪念馆,西樵镇环山大道山南路西樵山风景名胜区黄飞鸿狮艺武术馆,西樵镇,112.94494,22.923991,3.1,False,,关键词:纪念馆
B02F50WJ2P,黄有恒堂君璧纪念馆,自然景观,风景名胜;风景名胜;纪念馆,北社大街199号,西樵镇,112.946846,22.923966,3.0,False,,关键词:纪念馆
B02F5076FC,黄君壁纪念馆,自然景观,风景名胜;风景名胜;纪念馆,官太路与北社大街交叉口东60米,西樵镇,112.946325,22.924316,2.8,False,,关键词:纪念馆
B0FFHHD3W7,李紫屏故居,自然景观,风景名胜;风景名胜;纪念馆,富强北路与博爱东路交叉口东北220米,大沥镇,113.094289,23.114949,3.1,False,,关键词:纪念馆
B0FFL269A5,精武珠江派教练邵汉生纪念室,自然景观,风景名胜;风景名胜;纪念馆,规划A路与科创大道辅路交叉口西北200米,桂城街道,113.243887,23.031006,2.6,False,,关键词:纪念馆
B0FFL2KK25,广育奕贤纪念馆,自然景观,风景名胜;风景名胜;纪念馆,规划A路与港口路辅路交叉口西北200米,桂城街道,113.243752,23.0311,2.7,False,,关键词:纪念馆
B02F50WJ3F,启和文化纪念馆,自然景观,风景名胜;风景名胜;纪念馆,九江镇儒林东路48号,九江镇,113.017327,22.830081,2.5,False,,关键词:纪念馆
B0FFH49JEJ,陈志成纪念中心,自然景观,风景名胜;风景名胜;纪念馆,平洲夏平路广州医科大学附属广佛医院,桂城街道,113.190778,23.039387,3.2,False,,关键词:纪念馆
B0FFL08EZG,陈汉镕纪念亭,自然景观,风景名胜;风景名胜相关;旅游景点,南乡路南与南乡路东交叉口南80米,九江镇,113.021763,22.819537,2.4,False,,关键词:纪念馆
B0HG2U17GG,里水镇革命烈士纪念碑,自然景观,风景名胜;风景名胜;红色景区,里水镇沙涌“辘牛岗”永乐墓园内,里水镇,113.16865,23.162009,3.9,False,,关键词:纪念馆
B0FFGYBON8,泗沥龙舟纪念碑,自然景观,风景名胜;风景名胜;纪念馆,大沥镇泗沥村,大沥镇,113.154361,23.110648,3.7,True,龙舟,关键词:纪念馆
B0I1D7OZX6,狮山镇义民纪念碑,自然景观,风景名胜;风景名胜;纪念馆,银蟹线与民狮路交叉口南380米,狮山镇,112.981778,23.165253,3.8,False,,关键词:纪念馆
B0FFKW0QZG,大沥革命烈士纪念碑,自然景观,风景名胜;风景名胜;红色景区,大沥镇沥苑路大沥公园内(东南角),大沥镇,113.122997,23.111783,3.7,False,,关键词:纪念馆
B0FFKVULXD,徐边无辜受害死难贫下中农纪念碑,自然景观,风景名胜;风景名胜;纪念馆,徐边通街,狮山镇,112.932456,23.061795,3.5,False,,关键词:纪念馆
B0JDN78GG2,康有为纪念馆(暂停开放),自然景观,风景名胜;风景名胜;纪念馆,苏村,丹灶镇,112.90455,23.020622,4.3,False,,关键词:纪念馆
B0HG2UZPZ0,张云峰烈士纪念碑,自然景观,风景名胜;风景名胜;红色景区,狮山镇松岗桃园路华侨墓园,狮山镇,113.051435,23.153672,3.7,False,,关键词:纪念馆
B0FFL4YTVC,叶惠仔纪念亭,自然景观,风景名胜;风景名胜相关;旅游景点,公园路沙溪公园内(西侧),里水镇,113.19916,23.12575,2.8,False,,关键词:纪念馆
B0FFH2B16I,朱九江纪念公园,自然景观,风景名胜;风景名胜;风景名胜,九江镇教育路与西圣路交叉口西南260米,九江镇,113.006501,22.829636,4.0,False,,关键词:纪念馆
B0LDVU6A5P,伦文叙纪念广场,自然景观,风景名胜;风景名胜;风景名胜,罗村状元公园西北侧,狮山镇,113.050188,23.071992,3.4,False,,关键词:纪念馆
B0GKKZXHWI,南海文化中心,其他,科教文化服务;科教文化场所;科教文化场所,文心路1号南海文化中心,桂城街道,113.143493,23.053381,0,False,,关键词:文化馆
B0FFI1XVGR,碧华文体楼,其他,科教文化服务;文化宫;文化宫,村后西街与碧华大街交叉口南60米,里水镇,113.213138,23.096485,0,False,,关键词:文化馆
B02F50XHEV,三洲村文化中心,其他,商务住宅;住宅区;社区中心|科教文化服务;文化宫;文化宫,环村路58号平州,桂城街道,113.193696,23.050804,0,False,,关键词:文化馆
B0FFJODXQP,河清二村文化楼,其他,商务住宅;商务住宅相关;商务住宅相关,九江镇河清二村,九江镇,112.95161,22.85597,0,False,,关键词:文化馆
B0IA9XS07D,映月文化中心,其他,科教文化服务;文化宫;文化宫,夏平路与东信北路交叉口东220米,桂城街道,113.197685,23.041198,0,False,,关键词:文化馆
B02F501IFU,佛山市南海区文化馆,自然景观,科教文化服务;文化宫;文化宫,桂城街道南新一路6号1座(南海文化公园内),桂城街道,113.14645,23.022247,0,False,,关键词:文化馆
B0FFFEOXHQ,铺前村文化室,其他,科教文化服务;文化宫;文化宫,大沥镇铺前村南巷街,大沥镇,113.123131,23.075183,0,False,,关键词:文化馆
B0FFH8TG24,高家文化楼,其他,科教文化服务;科教文化场所;科教文化场所,贵斌路,丹灶镇,112.965437,22.967212,0,False,,关键词:文化馆
B0HUVZ2GKT,樵山文化中心C区,自然景观,科教文化服务;文化宫;文化宫,西樵镇樵园路25号,西樵镇,112.960698,22.934372,0,False,,关键词:文化馆
B0FFH3WSI3,下观村文化楼,宗教场所,科教文化服务;科教文化场所;科教文化场所,下观村路与下观村十五巷交叉口东60米,大沥镇,113.08184,23.063288,0,False,,关键词:文化馆
B0FFF9S7UV,狮山镇岭贝文化室,自然景观,科教文化服务;文化宫;文化宫,S82佛山一环高速辅路东200米曾氏文化室附近,狮山镇,113.013459,23.107205,0,False,,关键词:文化馆
B02F50XH77,良溪文化室,其他,科教文化服务;文化宫;文化宫,书院地塘4号,桂城街道,113.166808,23.051385,0,False,,关键词:文化馆
B0FFIE4NX2,元岗村文化楼,其他,科教文化服务;科教文化场所;科教文化场所,狮山镇松岗万石元岗村,狮山镇,113.087097,23.184479,0,False,,关键词:文化馆
B0FFIZOO98,爱琴珍珠文化馆,文化场馆,科教文化服务;科教文化场所;科教文化场所,梦里水乡艺术河畔西2门旁,里水镇,113.163603,23.189022,4.5,False,,关键词:文化馆
B02F50XH9Y,聚龙北文化中心,其他,科教文化服务;文化宫;文化宫,胜聚路与聚龙北大路交叉口北80米,桂城街道,113.167104,23.064804,0,False,,关键词:文化馆
B02F50XHFQ,罗东文化室,其他,科教文化服务;文化宫;文化宫,平州夏教村上教大街12号,桂城街道,113.1694,23.049544,0,False,,关键词:文化馆
B0FFIPKXKF,朗心村文化室,其他,科教文化服务;文化宫;文化宫,狮山镇,狮山镇,113.088105,23.123084,0,False,,关键词:文化馆
B0FFH489G3,夏江文化楼,其他,科教文化服务;科教文化场所;科教文化场所,康平南路福兴公寓西侧约230米,丹灶镇,113.013011,22.907767,0,False,,关键词:文化馆
B0IGMD6GBZ,四约村文化楼,其他,科教文化服务;科教文化场所;科教文化场所,狮山镇华涌社区四约村肆维里一巷1号,狮山镇,112.999782,23.135631,0,False,,关键词:文化馆
B0FFF45FTA,莺涌文化中心,其他,科教文化服务;科教文化场所;科教文化场所,莺冲村西6号联平路,里水镇,113.159643,23.085478,0,False,,关键词:文化馆
B0FFG4H8FG,滘西文化室,其他,科教文化服务;文化宫;文化宫,西约大街15号,里水镇,113.198198,23.113342,0,False,,关键词:文化馆
B0FFHDUUTG,水头何村文化楼,其他,政府机构及社会团体;政府机关;政府机关相关,联窖路与石板横路交叉口东南140米,里水镇,113.129724,23.116647,0,False,,关键词:文化馆
B0FFHIMBZF,谭边文化室,其他,科教文化服务;科教文化场所;科教文化场所,大沥镇水头路口新世纪大酒店谭边村,大沥镇,113.146354,23.093905,0,False,,关键词:文化馆
B0FFIBSSVS,福庆村文化室,其他,科教文化服务;科教文化场所;科教文化场所,桂城西约福庆村249号,桂城街道,113.144088,23.042075,0,False,,关键词:文化馆
B0FFINNWT2,罗田文化楼,其他,商务住宅;楼宇;商务写字楼,水头大道与海景大道交叉口北320米,桂城街道,113.131524,23.0789,0,False,,关键词:文化馆
B0FFGAHYF8,欧岗文化楼,其他,科教文化服务;科教文化场所;科教文化场所,狮山镇小塘新境,狮山镇,112.982579,23.079313,0,False,,关键词:文化馆
B0G3BAQ18N,河岗新村文化楼,其他,科教文化服务;科教文化场所;科教文化场所,稔河线与河新线交叉口西北500米,西樵镇,112.898556,22.944744,0,False,,关键词:文化馆
B0J0TU0N77,展旗楼状元文化文创体验馆,其他,科教文化服务;科教文化场所;科教文化场所,里水镇大冲社区展旗楼首层3号铺,里水镇,113.147869,23.151183,4.5,False,,关键词:文化馆
B0FFK8EIOV,西鸦村文化室,其他,科教文化服务;科教文化场所;科教文化场所,松岗卓峰产业园西北侧180米,大沥镇,113.108797,23.162981,0,False,,关键词:文化馆
B0FFL5BMJR,绿杨文化室,其他,科教文化服务;科教文化场所;科教文化场所,绿杨村杨伯诊所南侧130米,大沥镇,113.09364,23.130028,0,False,,关键词:文化馆
B0FFL4QR8Z,邝边村文化室,其他,科教文化服务;科教文化场所;科教文化场所,邝边村新街与奇槎大道东交叉口东南100米,里水镇,113.144221,23.084423,0,False,,关键词:文化馆
B0H3HS0G3B,下滘上沙北文化楼,其他,科教文化服务;科教文化场所;科教文化场所,,丹灶镇,112.975304,23.040562,0,False,,关键词:文化馆
B0L23G4700,南海区工人文化宫狮山宫,自然景观,科教文化服务;文化宫;文化宫,博爱中路57号,狮山镇,113.01039,23.117597,0,False,,关键词:文化馆
B0FFHCY12Q,西城村文化楼,其他,商务住宅;住宅区;社区中心,西城村新市街与西大线交叉口东240米,丹灶镇,112.894726,23.025058,0,False,,关键词:文化馆
B02F506LDG,寨边四队文化室,其他,科教文化服务;科教文化场所;科教文化场所,沿江中路与寨边村前东街交叉口东北80米,狮山镇,113.053943,23.052419,0,False,,关键词:文化馆
B0FFG0HUWC,詹村文化楼,其他,科教文化服务;科教文化场所;科教文化场所,文华北路辅路与铺前村南向街交叉口东北340米,桂城街道,113.127354,23.077287,0,False,,关键词:文化馆
B0FFHQ8YB6,夏西罗芳文化室,其他,科教文化服务;文化宫;文化宫,西便大街与罗芳村大桥头大道交叉口西180米,桂城街道,113.165937,23.048962,0,False,,关键词:文化馆
B0I0CCCUMU,北边文化中心,其他,科教文化服务;文化宫;文化宫,巷口坊路与格塘坊大道交叉口东南140米,桂城街道,113.162575,23.01147,0,False,,关键词:文化馆
B02F50UN9Q,五房沙文化中心,其他,科教文化服务;文化宫;文化宫,桂城街道平洲夏东五房,桂城街道,113.194735,23.048117,0,False,,关键词:文化馆
B02F50ZB0B,樵阳文化室,其他,科教文化服务;科教文化场所;科教文化场所,环山大道樵阳站公交站(樵晖新城西南),丹灶镇,112.998194,22.931107,0,False,,关键词:文化馆
B02F50Z7TR,新约文化中心,其他,商务住宅;住宅区;社区中心,桂城街道叠北新约村北区325号,桂城街道,113.1382,23.060051,0,False,,关键词:文化馆
B0FFKW5PDG,南星三队文化室,其他,科教文化服务;科教文化场所;科教文化场所,朗沙大道南星村44号楼,丹灶镇,113.033425,23.038976,0,False,,关键词:文化馆
B0FFGKZFDF,泗沥文化室,其他,科教文化服务;文化宫;文化宫,大沥镇盐步平地布匹市场,大沥镇,113.154934,23.110708,0,False,,关键词:文化馆
B0FFHG6VB9,河西新德村文化室,其他,科教文化服务;文化宫;文化宫,穗盐西路与联平路交叉口西400米,里水镇,113.156351,23.089024,0,False,,关键词:文化馆
B02F510PWC,黄岐文化中心,其他,科教文化服务;文化宫;文化宫,鄱阳路163号,大沥镇,113.187104,23.116254,0,False,,关键词:文化馆
B0FFHS5W5Z,南星五队文化室,其他,科教文化服务;科教文化场所;科教文化场所,狮山镇南星村东区南,狮山镇,113.033393,23.040537,0,False,,关键词:文化馆
B0FFG3QFGD,西一文化楼,其他,商务住宅;楼宇;工业大厦建筑物,西边街与兰边大街交叉口西20米,狮山镇,113.017676,23.071299,0,False,,关键词:文化馆
B0FFHZAJAB,南星一队文化室,其他,科教文化服务;科教文化场所;科教文化场所,狮山镇沿江南路,狮山镇,113.028739,23.034883,0,False,,关键词:文化馆
B0FFLM1I10,九江镇下西上基文化楼,其他,科教文化服务;科教文化场所;科教文化场所,九江镇下西上基村,九江镇,113.002867,22.836358,0,False,,关键词:文化馆
B0FFIN1QM3,敦根村文化楼,其他,科教文化服务;科教文化场所;科教文化场所,九江镇敦根社区南阳组60号,九江镇,113.000229,22.86919,0,False,,关键词:文化馆
B02F50V1W0,平南祥罗文化楼,其他,科教文化服务;文化宫;文化宫,祥胜北路与沿江路交叉口东北60米,桂城街道,113.202821,23.014852,0,False,,关键词:文化馆
B0FFHD4M57,镇头村文化室,其他,科教文化服务;科教文化场所;科教文化场所,镇东大路北4号,里水镇,113.126454,23.092503,0,False,,关键词:文化馆
B0FFMCZYCU,涌源文化中心,其他,科教文化服务;文化宫;文化宫,涌源居委北街与涌源居委南街交叉口北约80米,桂城街道,113.222855,23.035243,0,False,,关键词:文化馆
B02F507C53,沙水村文化室,其他,科教文化服务;文化宫;文化宫,桂和公路附近,里水镇,113.121552,23.167578,0,False,,关键词:文化馆
