{
  "total": 945,
  "source": "baidu_place_api_v2",
  "crawled_at": "2026-03-15 17:15",
  "search_config": {
    "radius_m": 5000,
    "keywords": [
      "景点",
      "博物馆",
      "祠堂",
      "古迹",
      "公园",
      "寺庙",
      "非遗",
      "文化",
      "纪念馆",
      "故居",
      "古村",
      "古建筑",
      "遗址",
      "塔",
      "庙",
      "书院",
      "艺术馆",
      "展览馆",
      "旅游"
    ],
    "towns": [
      "桂城街道",
      "西樵镇",
      "九江镇",
      "丹灶镇",
      "狮山镇",
      "大沥镇",
      "里水镇"
    ]
  },
  "pois": [
    {
      "name": "南海文化公园",
      "address": "广东省佛山市南海区桂城街道南新一路6号",
      "province": "广东省",
      "city": "佛山市",
      "area": "南海区",
      "lng": 113.15209,
      "lat": 23.029129,
      "uid": "c8e8f633a9587f6caa0dd8b2",
      "tag": "旅游景点;公园",
      "type": "scope",
      "overall_rating": "4.6",
      "comment_num": "12",
      "source": "baidu_api",
      "search_town": "桂城街道",
      "search_keyword": "景点"
    },
    {
      "name": "千灯湖",
      "address": "广东省佛山市南海区灯湖西路28号",
      "province": "广东省",
      "city": "佛山市",
      "area": "南海区",
      "lng": 113.154256,
      "lat": 23.059781,
      "uid": "6829db6ccf228e4743ab9a92",
      "tag": "旅游景点;其他",
      "type": "scope",
      "overall_rating": "5.0",
      "comment_num": "200",
      "source": "baidu_api",
      "search_town": "桂城街道",
      "search_keyword": "景点"
    },
    {
      "name": "夏漖粮园喜文化创意基地",
      "address": "广东省佛山市南海区新市直街1-46号",
      "province": "广东省",
      "city": "佛山市",
      "area": "南海区",
      "lng": 113.1805,
      "lat": 23.052458,
      "uid": "2536c6792bdc4e373904b117",
      "tag": "旅游景点;其他",
      "type": "scope",
      "overall_rating": "5.0",
      "comment_num": "3",
      "source": "baidu_api",
      "search_town": "桂城街道",
      "search_keyword": "景点"
    },
    {
      "name": "南新美术馆",
      "address": "广东省佛山市南海区桂城街道南新二路22号",
      "province": "广东省",
      "city": "佛山市",
      "area": "南海区",
      "lng": 113.152142,
      "lat": 23.03165,
      "uid": "b7bc17a538fc05ff8bfc0667",
      "tag": "文化传媒;美术馆",
      "type": "enterprise",
      "overall_rating": "5.0",
      "comment_num": "1",
      "source": "baidu_api",
      "search_town": "桂城街道",
      "search_keyword": "景点"
    },
    {
      "name": "东二公园",
      "address": "佛山市南海区中心大街15号",
      "province": "广东省",
      "city": "佛山市",
      "area": "南海区",
      "lng": 113.16357,
      "lat": 23.032427,
      "uid": "f757e6eeeee07117270bd0b2",
      "tag": "旅游景点;公园",
      "type": "scope",
      "overall_rating": "2.0",
      "comment_num": "2",
      "source": "baidu_api",
      "search_town": "桂城街道",
      "search_keyword": "景点"
    },
    {
      "name": "千灯湖创投特色小镇",
      "address": "广东省佛山市南海区桂澜北路6号",
      "province": "广东省",
      "city": "佛山市",
      "area": "南海区",
      "lng": 113.163503,
      "lat": 23.057028,
      "uid": "2018a2e292f223aaa8175a67",
      "tag": "旅游景点",
      "type": "scope",
      "overall_rating": "4.3",
      "comment_num": "45",
      "source": "baidu_api",
      "search_town": "桂城街道",
      "search_keyword": "景点"
    },
    {
      "name": "极限公园",
      "address": "广东省佛山市南海区利海半岛城玺",
      "province": "广东省",
      "city": "佛山市",
      "area": "南海区",
      "lng": 113.17961,
      "lat": 23.018958,
      "uid": "b7c376e05b60e500a1a9341d",
      "tag": "旅游景点;公园",
      "type": "scope",
      "overall_rating": "4.5",
      "comment_num": "17",
      "source": "baidu_api",
      "search_town": "桂城街道",
      "search_keyword": "景点"
    },
    {
      "name": "东约公园(新基路)",
      "address": "广东省佛山市南海区桂城街道东约社区新基路4号附近",
      "province": "广东省",
      "city": "佛山市",
      "area": "南海区",
      "lng": 113.149305,
      "lat": 23.041964,
      "uid": "f3c2373c34652952d32dd6b2",
      "tag": "旅游景点;公园",
      "type": "scope",
      "overall_rating": "4.5",
      "comment_num": "2",
      "source": "baidu_api",
      "search_town": "桂城街道",
      "search_keyword": "景点"
    },
    {
      "name": "叠滘水乡",
      "address": "广东省佛山市南海区南一路时代名轩",
      "province": "广东省",
      "city": "佛山市",
      "area": "南海区",
      "lng": 113.138913,
      "lat": 23.064598,
      "uid": "2af5b6e31c64c2f73fe231de",
      "tag": "旅游景点",
      "type": "scope",
      "overall_rating": "4.7",
      "comment_num": "2",
      "source": "baidu_api",
      "search_town": "桂城街道",
      "search_keyword": "景点"
    },
    {
      "name": "礌岗公园",
      "address": "广东省佛山市南海区桂城街道佛平二路",
      "province": "广东省",
      "city": "佛山市",
      "area": "南海区",
      "lng": 113.155013,
      "lat": 23.050166,
      "uid": "bd84d3e0f439891e9ff77919",
      "tag": "旅游景点;公园",
      "type": "scope",
      "overall_rating": "4.3",
      "comment_num": "35",
      "source": "baidu_api",
      "search_town": "桂城街道",
      "search_keyword": "景点"
    },
    {
      "name": "封御史祠",
      "address": "佛山市南海区工业西路8号",
      "province": "广东省",
      "city": "佛山市",
      "area": "南海区",
      "lng": 113.156239,
      "lat": 23.011625,
      "uid": "a039bedcc98a0326223bf211",
      "tag": "旅游景点;文物古迹",
      "type": "scope",
      "overall_rating": "5.0",
      "comment_num": "2",
      "source": "baidu_api",
      "search_town": "桂城街道",
      "search_keyword": "景点"
    },
    {
      "name": "南海活水公园",
      "address": "佛山市南海区桂澜中路海三路路口",
      "province": "广东省",
      "city": "佛山市",
      "area": "南海区",
      "lng": 113.159451,
      "lat": 23.05276,
      "uid": "e2368238d7c6b632725e8013",
      "tag": "旅游景点;公园",
      "type": "scope",
      "overall_rating": "4.4",
      "comment_num": "16",
      "source": "baidu_api",
      "search_town": "桂城街道",
      "search_keyword": "景点"
    },
    {
      "name": "石肯华光庙",
      "address": "广东省佛山市南海区桂城街道季华东路隔墩坊24号",
      "province": "广东省",
      "city": "佛山市",
      "area": "南海区",
      "lng": 113.167784,
      "lat": 23.020595,
      "uid": "659a443d50571d058605bf46",
      "tag": "旅游景点;寺庙",
      "type": "scope",
      "overall_rating": "5.0",
      "comment_num": "2",
      "source": "baidu_api",
      "search_town": "桂城街道",
      "search_keyword": "景点"
    },
    {
      "name": "海逸社区公园",
      "address": "广东省佛山市南海区海逸城市花园附近",
      "province": "广东省",
      "city": "佛山市",
      "area": "南海区",
      "lng": 113.180447,
      "lat": 23.026796,
      "uid": "00070e552a6378c53617dc64",
      "tag": "旅游景点;公园",
      "type": "scope",
      "overall_rating": "5.0",
      "comment_num": "4",
      "source": "baidu_api",
      "search_town": "桂城街道",
      "search_keyword": "景点"
    },
    {
      "name": "桂一社区公园",
      "address": "广东省佛山市南海区桂二路与南五路交汇路口",
      "province": "广东省",
      "city": "佛山市",
      "area": "南海区",
      "lng": 113.147869,
      "lat": 23.052317,
      "uid": "319a7ae7195b2c6f94ec84b5",
      "tag": "旅游景点;公园",
      "type": "scope",
      "overall_rating": "5.0",
      "comment_num": "1",
      "source": "baidu_api",
      "search_town": "桂城街道",
      "search_keyword": "景点"
    },
    {
      "name": "清风亭",
      "address": "广东省佛山市南海区桂城街道东约社区东大街6号附近",
      "province": "广东省",
      "city": "佛山市",
      "area": "南海区",
      "lng": 113.150964,
      "lat": 23.041452,
      "uid": "de954e9963e1c37817948e36",
      "tag": "旅游景点;公园",
      "type": "scope",
      "overall_rating": "",
      "comment_num": "",
      "source": "baidu_api",
      "search_town": "桂城街道",
      "search_keyword": "景点"
    },
    {
      "name": "怡翠公园",
      "address": "佛山市南海区华翠南路与桂平西路交汇处",
      "province": "广东省",
      "city": "佛山市",
      "area": "南海区",
      "lng": 113.172287,
      "lat": 23.037376,
      "uid": "d9ff78d2ace0750761685844",
      "tag": "旅游景点;公园",
      "type": "scope",
      "overall_rating": "3.5",
      "comment_num": "4",
      "source": "baidu_api",
      "search_town": "桂城街道",
      "search_keyword": "景点"
    },
    {
      "name": "礌岗公园-魁星阁",
      "address": "佛山市南海区环山路与佛平二路交叉路口往北约50米(雷岗公园)",
      "province": "广东省",
      "city": "佛山市",
      "area": "南海区",
      "lng": 113.152848,
      "lat": 23.046667,
      "uid": "b7969dd7158452b395ca079a",
      "tag": "旅游景点;其他",
      "type": "scope",
      "overall_rating": "4.0",
      "comment_num": "8",
      "source": "baidu_api",
      "search_town": "桂城街道",
      "search_keyword": "景点"
    },
    {
      "name": "怡海公园",
      "address": "佛山市南海区怡海路与华翠南路交汇处",
      "province": "广东省",
      "city": "佛山市",
      "area": "南海区",
      "lng": 113.170235,
      "lat": 23.024787,
      "uid": "b66c51e7895bd3eca6da39b2",
      "tag": "旅游景点;公园",
      "type": "scope",
      "overall_rating": "4.3",
      "comment_num": "39",
      "source": "baidu_api",
      "search_town": "桂城街道",
      "search_keyword": "景点"
    },
    {
      "name": "雷岗西约牌坊",
      "address": "广东省佛山市南海区桂城街道西约环山路34号",
      "province": "广东省",
      "city": "佛山市",
      "area": "南海区",
      "lng": 113.151957,
      "lat": 23.043902,
      "uid": "d7e828f15814fb86616858ca",
      "tag": "旅游景点;文物古迹",
      "type": "scope",
      "overall_rating": "1.0",
      "comment_num": "3",
      "source": "baidu_api",
      "search_town": "桂城街道",
      "search_keyword": "景点"
    },
    {
      "name": "文化公园三拱桥",
      "address": "佛山市南海区南新一路6号南海文化公园",
      "province": "广东省",
      "city": "佛山市",
      "area": "南海区",
      "lng": 113.151933,
      "lat": 23.028904,
      "uid": "88da881594c88f0fd23ce350",
      "tag": "旅游景点",
      "type": "scope",
      "overall_rating": "",
      "comment_num": "",
      "source": "baidu_api",
      "search_town": "桂城街道",
      "search_keyword": "景点"
    },
    {
      "name": "桂城人才公园",
      "address": "佛山市南海区良平路依云天汇-南区西南侧",
      "province": "广东省",
      "city": "佛山市",
      "area": "南海区",
      "lng": 113.164642,
      "lat": 23.051786,
      "uid": "b9fed499ced67defb64f5407",
      "tag": "旅游景点;公园",
      "type": "scope",
      "overall_rating": "5.0",
      "comment_num": "1",
      "source": "baidu_api",
      "search_town": "桂城街道",
      "search_keyword": "景点"
    },
    {
      "name": "聚龙南村社区体育公园",
      "address": "佛山市南海区聚南大道夏北幼儿园北侧约190米",
      "province": "广东省",
      "city": "佛山市",
      "area": "南海区",
      "lng": 113.176108,
      "lat": 23.068937,
      "uid": "72eac18c62cc2a9aad31e56a",
      "tag": "旅游景点;公园",
      "type": "scope",
      "overall_rating": "5.0",
      "comment_num": "1",
      "source": "baidu_api",
      "search_town": "桂城街道",
      "search_keyword": "景点"
    },
    {
      "name": "观灯桥",
      "address": "佛山市南海区灯湖西路南海千灯湖公园内",
      "province": "广东省",
      "city": "佛山市",
      "area": "南海区",
      "lng": 113.153339,
      "lat": 23.057788,
      "uid": "d2b5726973cba340bbbd63a2",
      "tag": "旅游景点",
      "type": "scope",
      "overall_rating": "4.8",
      "comment_num": "4",
      "source": "baidu_api",
      "search_town": "桂城街道",
      "search_keyword": "景点"
    },
    {
      "name": "月宫殿",
      "address": "佛山市南海区南新一路6号南海文化公园",
      "province": "广东省",
      "city": "佛山市",
      "area": "南海区",
      "lng": 113.152145,
      "lat": 23.029793,
      "uid": "a3bfc867ae961faeb33c81a9",
      "tag": "旅游景点",
      "type": "scope",
      "overall_rating": "",
      "comment_num": "",
      "source": "baidu_api",
      "search_town": "桂城街道",
      "search_keyword": "景点"
    },
    {
      "name": "二村公园",
      "address": "佛山市南海区新基坊大道与石啃新基坊交叉口东50米",
      "province": "广东省",
      "city": "佛山市",
      "area": "南海区",
      "lng": 113.169961,
      "lat": 23.013379,
      "uid": "d9a922ed070761f0afb22af0",
      "tag": "旅游景点;公园",
      "type": "scope",
      "overall_rating": "",
      "comment_num": "",
      "source": "baidu_api",
      "search_town": "桂城街道",
      "search_keyword": "景点"
    },
    {
      "name": "晋阳古道",
      "address": "佛山市南海区晋阳大街南75号",
      "province": "广东省",
      "city": "佛山市",
      "area": "南海区",
      "lng": 113.165164,
      "lat": 23.031971,
      "uid": "77e95d5d550e15fbc0f1cfd8",
      "tag": "旅游景点;其他",
      "type": "scope",
      "overall_rating": "",
      "comment_num": "",
      "source": "baidu_api",
      "search_town": "桂城街道",
      "search_keyword": "景点"
    },
    {
      "name": "南约牌坊",
      "address": "广东省佛山市南海区佛平二路142号",
      "province": "广东省",
      "city": "佛山市",
      "area": "南海区",
      "lng": 113.153478,
      "lat": 23.044169,
      "uid": "a7f8004efe5d2a548bfc0658",
      "tag": "旅游景点;文物古迹",
      "type": "scope",
      "overall_rating": "",
      "comment_num": "",
      "source": "baidu_api",
      "search_town": "桂城街道",
      "search_keyword": "景点"
    },
    {
      "name": "怡海公园-观景台",
      "address": "佛山市南海区怡海路与华翠南路交汇处怡海公园",
      "province": "广东省",
      "city": "佛山市",
      "area": "南海区",
      "lng": 113.163755,
      "lat": 23.027067,
      "uid": "605e3be2e37d52eeae0457ef",
      "tag": "旅游景点",
      "type": "scope",
      "overall_rating": "",
      "comment_num": "",
      "source": "baidu_api",
      "search_town": "桂城街道",
      "search_keyword": "景点"
    },
    {
      "name": "佛山保利体育公园",
      "address": "佛山市禅城区绿景三路与南海大道南交叉路口往东约200米",
      "province": "广东省",
      "city": "佛山市",
      "area": "禅城区",
      "lng": 113.153682,
      "lat": 23.005747,
      "uid": "f7fbc21b678ae2ec9b68b48b",
      "tag": "旅游景点;公园",
      "type": "scope",
      "overall_rating": "",
      "comment_num": "",
      "source": "baidu_api",
      "search_town": "桂城街道",
      "search_keyword": "景点"
    },
    {
      "name": "南海科学馆",
      "address": "广东省佛山市南海区桂城街道天佑三路3号",
      "province": "广东省",
      "city": "佛山市",
      "area": "南海区",
      "lng": 113.146506,
      "lat": 23.036552,
      "uid": "0adce3e20ac5801c80a00c47",
      "tag": "旅游景点;其他",
      "type": "scope",
      "overall_rating": "5.0",
      "comment_num": "2",
      "source": "baidu_api",
      "search_town": "桂城街道",
      "search_keyword": "景点"
    },
    {
      "name": "庆云公园",
      "address": "佛山市南海区文华北路15号",
      "province": "广东省",
      "city": "佛山市",
      "area": "南海区",
      "lng": 113.131266,
      "lat": 23.068517,
      "uid": "5bd95565b49059b81f38948c",
      "tag": "旅游景点;公园",
      "type": "scope",
      "overall_rating": "5.0",
      "comment_num": "1",
      "source": "baidu_api",
      "search_town": "桂城街道",
      "search_keyword": "景点"
    },
    {
      "name": "灯湖市政公园-3期",
      "address": "佛山市南海区灯湖东路千灯湖公园",
      "province": "广东省",
      "city": "佛山市",
      "area": "南海区",
      "lng": 113.155435,
      "lat": 23.072153,
      "uid": "d6edef6f0a4596f6210262d5",
      "tag": "旅游景点;公园",
      "type": "scope",
      "overall_rating": "4.0",
      "comment_num": "2",
      "source": "baidu_api",
      "search_town": "桂城街道",
      "search_keyword": "景点"
    },
    {
      "name": "千灯湖公园-南区",
      "address": "佛山市南海区桂城街道灯湖西路千灯湖公园",
      "province": "广东省",
      "city": "佛山市",
      "area": "南海区",
      "lng": 113.15268,
      "lat": 23.05896,
      "uid": "02432660fe51f2ab8bb98828",
      "tag": "旅游景点;公园",
      "type": "scope",
      "overall_rating": "4.5",
      "comment_num": "",
      "source": "baidu_api",
      "search_town": "桂城街道",
      "search_keyword": "景点"
    },
    {
      "name": "大观博物馆",
      "address": "佛山市南海区灯湖西路28号",
      "province": "广东省",
      "city": "佛山市",
      "area": "南海区",
      "lng": 113.152465,
      "lat": 23.055978,
      "uid": "9de2372ee90f7030038972f9",
      "tag": "旅游景点;博物馆",
      "type": "scope",
      "overall_rating": "4.2",
      "comment_num": "9",
      "source": "baidu_api",
      "search_town": "桂城街道",
      "search_keyword": "景点"
    },
    {
      "name": "叠南中心公园",
      "address": "佛山市南海区洙泗村330号",
      "province": "广东省",
      "city": "佛山市",
      "area": "南海区",
      "lng": 113.135492,
      "lat": 23.059812,
      "uid": "7da2612487c45dc721f017f2",
      "tag": "旅游景点;公园",
      "type": "scope",
      "overall_rating": "5.0",
      "comment_num": "1",
      "source": "baidu_api",
      "search_town": "桂城街道",
      "search_keyword": "景点"
    },
    {
      "name": "基督教鲤鱼沙堂",
      "address": "广东省佛山市南海区金桂新村27号",
      "province": "广东省",
      "city": "佛山市",
      "area": "南海区",
      "lng": 113.13548,
      "lat": 23.053339,
      "uid": "1c2dec98e12c9913a80dd827",
      "tag": "旅游景点;教堂",
      "type": "scope",
      "overall_rating": "0",
      "comment_num": "0",
      "source": "baidu_api",
      "search_town": "桂城街道",
      "search_keyword": "景点"
    },
    {
      "name": "育才",
      "address": "佛山市南海区长堤东路佛山市南海区桂城艾薇幼儿园南门东侧约90米",
      "province": "广东省",
      "city": "佛山市",
      "area": "南海区",
      "lng": 113.161038,
      "lat": 23.030565,
      "uid": "697131bdda72f54610293596",
      "tag": "旅游景点",
      "type": "scope",
      "overall_rating": "",
      "comment_num": "",
      "source": "baidu_api",
      "search_town": "桂城街道",
      "search_keyword": "景点"
    },
    {
      "name": "夏西大道牌坊",
      "address": "广东省佛山市南海区夏西村夏西大道",
      "province": "广东省",
      "city": "佛山市",
      "area": "南海区",
      "lng": 113.175443,
      "lat": 23.049118,
      "uid": "b1d78423e11005b2d4851f5d",
      "tag": "旅游景点;文物古迹",
      "type": "scope",
      "overall_rating": "",
      "comment_num": "",
      "source": "baidu_api",
      "search_town": "桂城街道",
      "search_keyword": "景点"
    },
    {
      "name": "学习强国主题公园",
      "address": "南海文化公园",
      "province": "广东省",
      "city": "佛山市",
      "area": "南海区",
      "lng": 113.152445,
      "lat": 23.029323,
      "uid": "387e49fa26102b1422f0171c",
      "tag": "旅游景点;公园",
      "type": "scope",
      "overall_rating": "",
      "comment_num": "",
      "source": "baidu_api",
      "search_town": "桂城街道",
      "search_keyword": "景点"
    },
    {
      "name": "水月宫",
      "address": "佛山市南海区西约大街北东二公园东南侧约150米",
      "province": "广东省",
      "city": "佛山市",
      "area": "南海区",
      "lng": 113.165373,
      "lat": 23.03159,
      "uid": "30dc6ed7019b9125b9df8faf",
      "tag": "旅游景点;其他",
      "type": "scope",
      "overall_rating": "",
      "comment_num": "",
      "source": "baidu_api",
      "search_town": "桂城街道",
      "search_keyword": "景点"
    },
    {
      "name": "瓜步村新村东中心花园",
      "address": "广东省佛山市南海区桂城街道平胜瓜步村新村东中心花园",
      "province": "广东省",
      "city": "佛山市",
      "area": "南海区",
      "lng": 113.193678,
      "lat": 23.012092,
      "uid": "2280b6db33ec3c630b1cc74a",
      "tag": "旅游景点;公园",
      "type": "scope",
      "overall_rating": "",
      "comment_num": "",
      "source": "baidu_api",
      "search_town": "桂城街道",
      "search_keyword": "景点"
    },
    {
      "name": "同庆坊",
      "address": "佛山市南海区西龙大街龙湾足球公园东侧约170米",
      "province": "广东省",
      "city": "佛山市",
      "area": "南海区",
      "lng": 113.180678,
      "lat": 23.001757,
      "uid": "8047badbd9de8ac16d3e1beb",
      "tag": "旅游景点",
      "type": "scope",
      "overall_rating": "",
      "comment_num": "",
      "source": "baidu_api",
      "search_town": "桂城街道",
      "search_keyword": "景点"
    },
    {
      "name": "佛山南海金融公园",
      "address": "南海区桂城街道海八东路21号附近",
      "province": "广东省",
      "city": "佛山市",
      "area": "南海区",
      "lng": 113.164672,
      "lat": 23.074146,
      "uid": "bb3d24a744956da89f09f71d",
      "tag": "旅游景点;公园",
      "type": "scope",
      "overall_rating": "4.2",
      "comment_num": "21",
      "source": "baidu_api",
      "search_town": "桂城街道",
      "search_keyword": "景点"
    },
    {
      "name": "藕田公园",
      "address": "佛山市南海区夏平路与保利星座花园之间",
      "province": "广东省",
      "city": "佛山市",
      "area": "南海区",
      "lng": 113.171807,
      "lat": 23.047712,
      "uid": "c61bd30562d71c16c27da2d7",
      "tag": "旅游景点;公园",
      "type": "scope",
      "overall_rating": "3.0",
      "comment_num": "2",
      "source": "baidu_api",
      "search_town": "桂城街道",
      "search_keyword": "景点"
    },
    {
      "name": "民国风范雕塑",
      "address": "佛山市南海区怡海路与华翠南路交汇处怡海公园",
      "province": "广东省",
      "city": "佛山市",
      "area": "南海区",
      "lng": 113.163767,
      "lat": 23.028351,
      "uid": "81db5e302950f7aeac080fbe",
      "tag": "旅游景点;其他",
      "type": "scope",
      "overall_rating": "",
      "comment_num": "",
      "source": "baidu_api",
      "search_town": "桂城街道",
      "search_keyword": "景点"
    },
    {
      "name": "夏北中心公园",
      "address": "佛山市南海区宝石西路夏逸花园斜对面",
      "province": "广东省",
      "city": "佛山市",
      "area": "南海区",
      "lng": 113.172149,
      "lat": 23.066026,
      "uid": "e92f13ad5769aa2c8b2fb503",
      "tag": "旅游景点;公园",
      "type": "scope",
      "overall_rating": "5.0",
      "comment_num": "10",
      "source": "baidu_api",
      "search_town": "桂城街道",
      "search_keyword": "景点"
    },
    {
      "name": "康怡公园",
      "address": "佛山市南海区佛平四路与佛平五路交叉处",
      "province": "广东省",
      "city": "佛山市",
      "area": "南海区",
      "lng": 113.197124,
      "lat": 23.039269,
      "uid": "56f2f69636f0f8800ba8d4b2",
      "tag": "旅游景点;公园",
      "type": "scope",
      "overall_rating": "3.2",
      "comment_num": "6",
      "source": "baidu_api",
      "search_town": "桂城街道",
      "search_keyword": "景点"
    },
    {
      "name": "尖东公园",
      "address": "广东省佛山市南海区桂城街道尖东社区平西大道南58号",
      "province": "广东省",
      "city": "佛山市",
      "area": "南海区",
      "lng": 113.184829,
      "lat": 23.021294,
      "uid": "a8e92fee157d3ae5b9df8fa9",
      "tag": "旅游景点;公园",
      "type": "scope",
      "overall_rating": "4.0",
      "comment_num": "1",
      "source": "baidu_api",
      "search_town": "桂城街道",
      "search_keyword": "景点"
    },
    {
      "name": "瑞庭唐公祠",
      "address": "佛山市南海区东二中心村B区一巷东二公园东北侧",
      "province": "广东省",
      "city": "佛山市",
      "area": "南海区",
      "lng": 113.163947,
      "lat": 23.032723,
      "uid": "e3efdcaa6c203987b817e7af",
      "tag": "旅游景点;文物古迹",
      "type": "scope",
      "overall_rating": "0",
      "comment_num": "1",
      "source": "baidu_api",
      "search_town": "桂城街道",
      "search_keyword": "景点"
    },
    {
      "name": "春分雨塔",
      "address": "佛山市南海区怡海路与华翠南路交汇处怡海公园",
      "province": "广东省",
      "city": "佛山市",
      "area": "南海区",
      "lng": 113.162297,
      "lat": 23.030235,
      "uid": "e4c107e8aff82acb223bf2c3",
      "tag": "旅游景点;文物古迹",
      "type": "scope",
      "overall_rating": "",
      "comment_num": "",
      "source": "baidu_api",
      "search_town": "桂城街道",
      "search_keyword": "景点"
    },
    {
      "name": "桂城半月岛生态公园-露营地",
      "address": "广东省佛山市南海区石肯半月岛8号半月岛生态公园(南海段)",
      "province": "广东省",
      "city": "佛山市",
      "area": "南海区",
      "lng": 113.171496,
      "lat": 23.004554,
      "uid": "744201f25dfaf3befda77844",
      "tag": "旅游景点;其他",
      "type": "scope",
      "overall_rating": "5.0",
      "comment_num": "2",
      "source": "baidu_api",
      "search_town": "桂城街道",
      "search_keyword": "景点"
    },
    {
      "name": "祥原亭",
      "address": "佛山市南海区东二中心村B区一巷东二公园",
      "province": "广东省",
      "city": "佛山市",
      "area": "南海区",
      "lng": 113.163719,
      "lat": 23.032615,
      "uid": "655447e5cc6a3549eb56faf7",
      "tag": "旅游景点",
      "type": "scope",
      "overall_rating": "",
      "comment_num": "",
      "source": "baidu_api",
      "search_town": "桂城街道",
      "search_keyword": "景点"
    },
    {
      "name": "桂城西龙湿地公园-露营地",
      "address": "佛山市南海区S47桂城西龙湿地公园",
      "province": "广东省",
      "city": "佛山市",
      "area": "南海区",
      "lng": 113.178652,
      "lat": 23.001175,
      "uid": "d52faf776b327ef483a00c3f",
      "tag": "旅游景点;其他",
      "type": "scope",
      "overall_rating": "4.0",
      "comment_num": "1",
      "source": "baidu_api",
      "search_town": "桂城街道",
      "search_keyword": "景点"
    },
    {
      "name": "古直孔公祠",
      "address": "佛山市南海区南一路时代名轩-南区西侧约50米",
      "province": "广东省",
      "city": "佛山市",
      "area": "南海区",
      "lng": 113.139907,
      "lat": 23.060208,
      "uid": "0612042e0024bc40364aae20",
      "tag": "旅游景点;文物古迹",
      "type": "scope",
      "overall_rating": "5.0",
      "comment_num": "1",
      "source": "baidu_api",
      "search_town": "桂城街道",
      "search_keyword": "景点"
    },
    {
      "name": "叠北公园",
      "address": "佛山市南海区叠滘圩88号",
      "province": "广东省",
      "city": "佛山市",
      "area": "南海区",
      "lng": 113.136324,
      "lat": 23.063628,
      "uid": "981f5c1fc54ac7ae8b36ee7e",
      "tag": "旅游景点;公园",
      "type": "scope",
      "overall_rating": "",
      "comment_num": "",
      "source": "baidu_api",
      "search_town": "桂城街道",
      "search_keyword": "景点"
    },
    {
      "name": "三圣宫",
      "address": "广东省佛山市南海区桂城街道叠南茶基村328号",
      "province": "广东省",
      "city": "佛山市",
      "area": "南海区",
      "lng": 113.131817,
      "lat": 23.058133,
      "uid": "0fe56b506b2eb10ff60e7710",
      "tag": "旅游景点;寺庙",
      "type": "scope",
      "overall_rating": "0",
      "comment_num": "0",
      "source": "baidu_api",
      "search_town": "桂城街道",
      "search_keyword": "景点"
    },
    {
      "name": "晋连陈公祠",
      "address": "佛山市南海区北八巷1号",
      "province": "广东省",
      "city": "佛山市",
      "area": "南海区",
      "lng": 113.166043,
      "lat": 23.029344,
      "uid": "ac2188c0ceea666ec2f1cf8d",
      "tag": "旅游景点;文物古迹",
      "type": "scope",
      "overall_rating": "",
      "comment_num": "",
      "source": "baidu_api",
      "search_town": "桂城街道",
      "search_keyword": "景点"
    },
    {
      "name": "桂城半月岛生态公园",
      "address": "佛山市南海区石肯半月岛8号",
      "province": "广东省",
      "city": "佛山市",
      "area": "南海区",
      "lng": 113.171275,
      "lat": 23.004806,
      "uid": "d8079e2fa3e08412c8213d35",
      "tag": "旅游景点;公园",
      "type": "scope",
      "overall_rating": "4.3",
      "comment_num": "8",
      "source": "baidu_api",
      "search_town": "桂城街道",
      "search_keyword": "景点"
    },
    {
      "name": "悦岛城市营地",
      "address": "桂城半月岛生态公园",
      "province": "广东省",
      "city": "佛山市",
      "area": "南海区",
      "lng": 113.170708,
      "lat": 23.003942,
      "uid": "de96dd64169c08f52a06ce02",
      "tag": "旅游景点;其他",
      "type": "scope",
      "overall_rating": "3.8",
      "comment_num": "1",
      "source": "baidu_api",
      "search_town": "桂城街道",
      "search_keyword": "景点"
    },
    {
      "name": "六月西洋艺术博物馆",
      "address": "广东省佛山市南海区海八东路38号丽致汇广场北门商场3号电梯上9层",
      "province": "广东省",
      "city": "佛山市",
      "area": "南海区",
      "lng": 113.157632,
      "lat": 23.071733,
      "uid": "632507175adf0473df1e52e1",
      "tag": "旅游景点;博物馆",
      "type": "scope",
      "overall_rating": "",
      "comment_num": "",
      "source": "baidu_api",
      "search_town": "桂城街道",
      "search_keyword": "博物馆"
    },
    {
      "name": "孔氏家庙",
      "address": "佛山市南海区叠北村头村江南名居西南侧约120米",
      "province": "广东省",
      "city": "佛山市",
      "area": "南海区",
      "lng": 113.138048,
      "lat": 23.068911,
      "uid": "1865c648a56a1a746ca3cc35",
      "tag": "旅游景点;寺庙",
      "type": "scope",
      "overall_rating": "",
      "comment_num": "",
      "source": "baidu_api",
      "search_town": "桂城街道",
      "search_keyword": "祠堂"
    },
    {
      "name": "梁氏祠堂",
      "address": "广东省佛山市南海区桂城石啃中学梁氏祠堂",
      "province": "广东省",
      "city": "佛山市",
      "area": "南海区",
      "lng": 113.163352,
      "lat": 23.013889,
      "uid": "9bc24e6484c59b4fc6effbda",
      "tag": "旅游景点",
      "type": "scope",
      "overall_rating": "",
      "comment_num": "",
      "source": "baidu_api",
      "search_town": "桂城街道",
      "search_keyword": "祠堂"
    },
    {
      "name": "新基坊孖祠堂街",
      "address": "广东省佛山市南海区",
      "province": "广东省",
      "city": "佛山市",
      "area": "南海区",
      "lng": 113.168232,
      "lat": 23.014682,
      "uid": "0dcb160792b68e5dffa77861",
      "tag": "道路",
      "type": "",
      "overall_rating": "",
      "comment_num": "",
      "source": "baidu_api",
      "search_town": "桂城街道",
      "search_keyword": "祠堂"
    },
    {
      "name": "彭岸路/新基坊孖祠堂街(路口)",
      "address": "佛山市南海区新基坊大道",
      "province": "广东省",
      "city": "佛山市",
      "area": "南海区",
      "lng": 113.168667,
      "lat": 23.014347,
      "uid": "972d8be7d2ce896c2b201a82",
      "tag": "道路;路口",
      "type": "life",
      "overall_rating": "",
      "comment_num": "",
      "source": "baidu_api",
      "search_town": "桂城街道",
      "search_keyword": "祠堂"
    },
    {
      "name": "新基坊大道/新基坊孖祠堂街(路口)",
      "address": "佛山市南海区新基坊孖祠堂街",
      "province": "广东省",
      "city": "佛山市",
      "area": "南海区",
      "lng": 113.168667,
      "lat": 23.014347,
      "uid": "51b9660d3b9f02d509a8d470",
      "tag": "道路;路口",
      "type": "life",
      "overall_rating": "",
      "comment_num": "",
      "source": "baidu_api",
      "search_town": "桂城街道",
      "search_keyword": "祠堂"
    },
    {
      "name": "盧氏祠堂-西南门",
      "address": "佛山市南海区叠滘三路附近",
      "province": "广东省",
      "city": "佛山市",
      "area": "南海区",
      "lng": 113.136017,
      "lat": 23.066208,
      "uid": "5f4c49d5acdd482e8936eefc",
      "tag": "出入口;门",
      "type": "life",
      "overall_rating": "",
      "comment_num": "",
      "source": "baidu_api",
      "search_town": "桂城街道",
      "search_keyword": "祠堂"
    },
    {
      "name": "东约古庙",
      "address": "广东省佛山市南海区桂城街道华翠南路28号发仔土鸡店旁",
      "province": "广东省",
      "city": "佛山市",
      "area": "南海区",
      "lng": 113.169948,
      "lat": 23.029273,
      "uid": "598f0d50dc8b39eea21de949",
      "tag": "旅游景点;寺庙",
      "type": "scope",
      "overall_rating": "4.0",
      "comment_num": "1",
      "source": "baidu_api",
      "search_town": "桂城街道",
      "search_keyword": "古迹"
    },
    {
      "name": "文武北帝古庙",
      "address": "佛山市南海区石肯庞地坊新村南区街九景茗轩大酒店(季华东路店)东侧约190米",
      "province": "广东省",
      "city": "佛山市",
      "area": "南海区",
      "lng": 113.165572,
      "lat": 23.019853,
      "uid": "9d7746e4f6e6015921f01720",
      "tag": "旅游景点;寺庙",
      "type": "scope",
      "overall_rating": "",
      "comment_num": "",
      "source": "baidu_api",
      "search_town": "桂城街道",
      "search_keyword": "古迹"
    },
    {
      "name": "宣抚使梁公祠",
      "address": "佛山市南海区中村路石啃中学南侧约80米",
      "province": "广东省",
      "city": "佛山市",
      "area": "南海区",
      "lng": 113.164058,
      "lat": 23.012345,
      "uid": "661d83e2959fb5af48cc4a1e",
      "tag": "旅游景点;文物古迹",
      "type": "scope",
      "overall_rating": "",
      "comment_num": "",
      "source": "baidu_api",
      "search_town": "桂城街道",
      "search_keyword": "古迹"
    },
    {
      "name": "马大将军庙",
      "address": "佛山市南海区金桔园4号",
      "province": "广东省",
      "city": "佛山市",
      "area": "南海区",
      "lng": 113.155458,
      "lat": 23.01116,
      "uid": "426582059ca3001a32f71d6a",
      "tag": "旅游景点;寺庙",
      "type": "scope",
      "overall_rating": "1.0",
      "comment_num": "1",
      "source": "baidu_api",
      "search_town": "桂城街道",
      "search_keyword": "古迹"
    },
    {
      "name": "白鸽塔",
      "address": "佛山市南海区灯湖西路南海千灯湖公园内",
      "province": "广东省",
      "city": "佛山市",
      "area": "南海区",
      "lng": 113.154399,
      "lat": 23.054168,
      "uid": "96f97b2b4e9e44bc9122e041",
      "tag": "旅游景点;文物古迹",
      "type": "scope",
      "overall_rating": "",
      "comment_num": "",
      "source": "baidu_api",
      "search_town": "桂城街道",
      "search_keyword": "古迹"
    },
    {
      "name": "历史观测台",
      "address": "佛山市南海区灯湖东路千灯湖公园",
      "province": "广东省",
      "city": "佛山市",
      "area": "南海区",
      "lng": 113.153596,
      "lat": 23.055972,
      "uid": "71b71b36c7ccb8a30b1cc7e1",
      "tag": "旅游景点;文物古迹",
      "type": "scope",
      "overall_rating": "5.0",
      "comment_num": "2",
      "source": "baidu_api",
      "search_town": "桂城街道",
      "search_keyword": "古迹"
    },
    {
      "name": "参天宫圣庙",
      "address": "广东省佛山市南海区直涌路三村中心公园",
      "province": "广东省",
      "city": "佛山市",
      "area": "南海区",
      "lng": 113.163244,
      "lat": 23.008434,
      "uid": "e582d064b25b043690114cb2",
      "tag": "旅游景点;寺庙",
      "type": "scope",
      "overall_rating": "",
      "comment_num": "",
      "source": "baidu_api",
      "search_town": "桂城街道",
      "search_keyword": "古迹"
    },
    {
      "name": "宋提督梁公祠",
      "address": "广东省佛山市南海区桂城街道平西街23号",
      "province": "广东省",
      "city": "佛山市",
      "area": "南海区",
      "lng": 113.201831,
      "lat": 23.02678,
      "uid": "b967248f25b0b224cc06a465",
      "tag": "旅游景点;文物古迹",
      "type": "scope",
      "overall_rating": "",
      "comment_num": "",
      "source": "baidu_api",
      "search_town": "桂城街道",
      "search_keyword": "古迹"
    },
    {
      "name": "燕翼唐公祠",
      "address": "佛山市南海区东二村南街南二巷恒丰楼(华翠南路)西北侧约100米",
      "province": "广东省",
      "city": "佛山市",
      "area": "南海区",
      "lng": 113.169946,
      "lat": 23.029225,
      "uid": "cb152567a8dcd7d65cd4fe95",
      "tag": "旅游景点;文物古迹",
      "type": "scope",
      "overall_rating": "3.0",
      "comment_num": "1",
      "source": "baidu_api",
      "search_town": "桂城街道",
      "search_keyword": "古迹"
    },
    {
      "name": "大雄宝殿",
      "address": "广东省佛山市南海区西龙大街龙湾足球公园东侧约180米",
      "province": "广东省",
      "city": "佛山市",
      "area": "南海区",
      "lng": 113.180779,
      "lat": 23.001662,
      "uid": "0ccc673bf45014c8d4851f2e",
      "tag": "旅游景点;文物古迹",
      "type": "scope",
      "overall_rating": "0",
      "comment_num": "1",
      "source": "baidu_api",
      "search_town": "桂城街道",
      "search_keyword": "古迹"
    },
    {
      "name": "观音庙",
      "address": "佛山市南海区蓬涌大道太港城西南侧约270米",
      "province": "广东省",
      "city": "佛山市",
      "area": "南海区",
      "lng": 113.198361,
      "lat": 23.032291,
      "uid": "fc28ee568ef0cf08f4b9168c",
      "tag": "旅游景点;寺庙",
      "type": "scope",
      "overall_rating": "",
      "comment_num": "",
      "source": "baidu_api",
      "search_town": "桂城街道",
      "search_keyword": "古迹"
    },
    {
      "name": "观龙楼",
      "address": "佛山市南海区海四路名苑小区-二区西侧约230米",
      "province": "广东省",
      "city": "佛山市",
      "area": "南海区",
      "lng": 113.137045,
      "lat": 23.057651,
      "uid": "8d42e4c8d5de9fbe7069d3b2",
      "tag": "旅游景点;文物古迹",
      "type": "scope",
      "overall_rating": "0",
      "comment_num": "2",
      "source": "baidu_api",
      "search_town": "桂城街道",
      "search_keyword": "古迹"
    },
    {
      "name": "南昌宫",
      "address": "佛山市南海区北约大道桂城北约幼儿园",
      "province": "广东省",
      "city": "佛山市",
      "area": "南海区",
      "lng": 113.157182,
      "lat": 23.048334,
      "uid": "4138834de5ba036516a19082",
      "tag": "旅游景点;文物古迹",
      "type": "scope",
      "overall_rating": "",
      "comment_num": "",
      "source": "baidu_api",
      "search_town": "桂城街道",
      "search_keyword": "古迹"
    },
    {
      "name": "临海庙",
      "address": "文化北路庆云村",
      "province": "广东省",
      "city": "佛山市",
      "area": "南海区",
      "lng": 113.128843,
      "lat": 23.067903,
      "uid": "74f6fe42b4b2953ad42ce2d5",
      "tag": "旅游景点;寺庙",
      "type": "scope",
      "overall_rating": "0",
      "comment_num": "1",
      "source": "baidu_api",
      "search_town": "桂城街道",
      "search_keyword": "古迹"
    },
    {
      "name": "冥想塔",
      "address": "佛山市南海区灯湖西路南海千灯湖公园内",
      "province": "广东省",
      "city": "佛山市",
      "area": "南海区",
      "lng": 113.154502,
      "lat": 23.058088,
      "uid": "3fe91ea5a50ec710c056ac80",
      "tag": "旅游景点;文物古迹",
      "type": "scope",
      "overall_rating": "",
      "comment_num": "",
      "source": "baidu_api",
      "search_town": "桂城街道",
      "search_keyword": "古迹"
    },
    {
      "name": "三村中心公园-地母庙",
      "address": "佛山市南海区直涌路三村中心公园",
      "province": "广东省",
      "city": "佛山市",
      "area": "南海区",
      "lng": 113.163235,
      "lat": 23.008376,
      "uid": "5134235cf2707db08515413d",
      "tag": "旅游景点;寺庙",
      "type": "scope",
      "overall_rating": "",
      "comment_num": "",
      "source": "baidu_api",
      "search_town": "桂城街道",
      "search_keyword": "古迹"
    },
    {
      "name": "澳边庙涌坊",
      "address": "佛山市南海区澳边村大门神33号附近",
      "province": "广东省",
      "city": "佛山市",
      "area": "南海区",
      "lng": 113.137585,
      "lat": 23.065642,
      "uid": "6a694fb3e5c3bd260bf5eb1d",
      "tag": "旅游景点",
      "type": "scope",
      "overall_rating": "",
      "comment_num": "",
      "source": "baidu_api",
      "search_town": "桂城街道",
      "search_keyword": "古迹"
    },
    {
      "name": "四美陈公祠",
      "address": "佛山市南海区南一路时代名轩-北区西北侧约160米",
      "province": "广东省",
      "city": "佛山市",
      "area": "南海区",
      "lng": 113.139113,
      "lat": 23.066064,
      "uid": "9a27f05963af39c7e011035e",
      "tag": "旅游景点;文物古迹",
      "type": "scope",
      "overall_rating": "",
      "comment_num": "",
      "source": "baidu_api",
      "search_town": "桂城街道",
      "search_keyword": "古迹"
    },
    {
      "name": "千灯湖丰收塔",
      "address": "佛山市南海区灯湖西路南海千灯湖公园内",
      "province": "广东省",
      "city": "佛山市",
      "area": "南海区",
      "lng": 113.152618,
      "lat": 23.058042,
      "uid": "8dc2026ecf0a9643d8131837",
      "tag": "旅游景点;文物古迹",
      "type": "scope",
      "overall_rating": "",
      "comment_num": "",
      "source": "baidu_api",
      "search_town": "桂城街道",
      "search_keyword": "古迹"
    },
    {
      "name": "环三社址",
      "address": "广东省佛山市南海区环二大道鸿杰百货商场(夏南一市场西北)",
      "province": "广东省",
      "city": "佛山市",
      "area": "南海区",
      "lng": 113.183508,
      "lat": 23.052099,
      "uid": "49278b940de18bd83a04b1e9",
      "tag": "旅游景点;文物古迹",
      "type": "scope",
      "overall_rating": "",
      "comment_num": "",
      "source": "baidu_api",
      "search_town": "桂城街道",
      "search_keyword": "古迹"
    },
    {
      "name": "镜台黎公祠",
      "address": "环二大街9附近",
      "province": "广东省",
      "city": "佛山市",
      "area": "南海区",
      "lng": 113.183417,
      "lat": 23.052073,
      "uid": "fe9347790deffe9d9de3216b",
      "tag": "旅游景点;文物古迹",
      "type": "scope",
      "overall_rating": "",
      "comment_num": "",
      "source": "baidu_api",
      "search_town": "桂城街道",
      "search_keyword": "古迹"
    },
    {
      "name": "孔溪焚香亭",
      "address": "佛山市南海区大路一新街孔溪文娱体育场西侧约160米",
      "province": "广东省",
      "city": "佛山市",
      "area": "南海区",
      "lng": 113.194703,
      "lat": 23.048711,
      "uid": "6d0f6fbbacc36c5cfbdc852a",
      "tag": "旅游景点;文物古迹",
      "type": "scope",
      "overall_rating": "",
      "comment_num": "",
      "source": "baidu_api",
      "search_town": "桂城街道",
      "search_keyword": "古迹"
    },
    {
      "name": "遁叟江公祠",
      "address": "广东省佛山市南海区海六路江头毓秀(俊雅花园西50米)",
      "province": "广东省",
      "city": "佛山市",
      "area": "南海区",
      "lng": 113.14096,
      "lat": 23.062926,
      "uid": "9f5b7479822b3aa394031990",
      "tag": "旅游景点;文物古迹",
      "type": "scope",
      "overall_rating": "",
      "comment_num": "",
      "source": "baidu_api",
      "search_town": "桂城街道",
      "search_keyword": "古迹"
    },
    {
      "name": "佛山市历史建筑黎述绪宅",
      "address": "佛山市南海区松轩街夏逸花园南侧约140米",
      "province": "广东省",
      "city": "佛山市",
      "area": "南海区",
      "lng": 113.172161,
      "lat": 23.062578,
      "uid": "37c4f990e6e55d534d2fdfd3",
      "tag": "旅游景点;文物古迹",
      "type": "scope",
      "overall_rating": "",
      "comment_num": "",
      "source": "baidu_api",
      "search_town": "桂城街道",
      "search_keyword": "古迹"
    },
    {
      "name": "三帝古庙",
      "address": "佛山市南海区新华上街夏北中心公园西侧约180米",
      "province": "广东省",
      "city": "佛山市",
      "area": "南海区",
      "lng": 113.168465,
      "lat": 23.066544,
      "uid": "a0230a30dce9834d5b10930e",
      "tag": "旅游景点;寺庙",
      "type": "scope",
      "overall_rating": "",
      "comment_num": "",
      "source": "baidu_api",
      "search_town": "桂城街道",
      "search_keyword": "古迹"
    },
    {
      "name": "临溪何公祠",
      "address": "广东省佛山市南海区夏北大道56号",
      "province": "广东省",
      "city": "佛山市",
      "area": "南海区",
      "lng": 113.175531,
      "lat": 23.06409,
      "uid": "90e5bafd08bc32edc1f1cf81",
      "tag": "旅游景点;文物古迹",
      "type": "scope",
      "overall_rating": "",
      "comment_num": "",
      "source": "baidu_api",
      "search_town": "桂城街道",
      "search_keyword": "古迹"
    },
    {
      "name": "仁爱善堂",
      "address": "佛山市南海区三洲村大道清溪公园东侧约40米",
      "province": "广东省",
      "city": "佛山市",
      "area": "南海区",
      "lng": 113.192109,
      "lat": 23.053521,
      "uid": "cb7e69211c437caeb45f1ecd",
      "tag": "旅游景点",
      "type": "scope",
      "overall_rating": "",
      "comment_num": "",
      "source": "baidu_api",
      "search_town": "桂城街道",
      "search_keyword": "古迹"
    },
    {
      "name": "月明",
      "address": "佛山市南海区松轩街益禾·人才公寓东侧约240米",
      "province": "广东省",
      "city": "佛山市",
      "area": "南海区",
      "lng": 113.172139,
      "lat": 23.061571,
      "uid": "8fd8118acc97d0633be4a6e9",
      "tag": "旅游景点;文物古迹",
      "type": "scope",
      "overall_rating": "",
      "comment_num": "",
      "source": "baidu_api",
      "search_town": "桂城街道",
      "search_keyword": "古迹"
    },
    {
      "name": "信存何公祠",
      "address": "佛山市南海区江南名居西南侧约90米",
      "province": "广东省",
      "city": "佛山市",
      "area": "南海区",
      "lng": 113.138341,
      "lat": 23.068759,
      "uid": "161c3d4ab7b580c5100daa69",
      "tag": "旅游景点;文物古迹",
      "type": "scope",
      "overall_rating": "",
      "comment_num": "",
      "source": "baidu_api",
      "search_town": "桂城街道",
      "search_keyword": "古迹"
    },
    {
      "name": "观音殿",
      "address": "佛山市南海区西龙大街龙湾足球公园东侧约170米",
      "province": "广东省",
      "city": "佛山市",
      "area": "南海区",
      "lng": 113.180651,
      "lat": 23.001745,
      "uid": "c444c9b8cbc97296eee4a5c8",
      "tag": "旅游景点;寺庙",
      "type": "scope",
      "overall_rating": "",
      "comment_num": "",
      "source": "baidu_api",
      "search_town": "桂城街道",
      "search_keyword": "古迹"
    },
    {
      "name": "成庄何公祠",
      "address": "佛山市南海区文华北路德宝花苑北侧约60米",
      "province": "广东省",
      "city": "佛山市",
      "area": "南海区",
      "lng": 113.131509,
      "lat": 23.058205,
      "uid": "179d2dfe4375ad980bccdde9",
      "tag": "旅游景点;文物古迹",
      "type": "scope",
      "overall_rating": "0",
      "comment_num": "1",
      "source": "baidu_api",
      "search_town": "桂城街道",
      "search_keyword": "古迹"
    },
    {
      "name": "文升刘公祠",
      "address": "广东省佛山市南海区桂城街道叠南陈丰村240号",
      "province": "广东省",
      "city": "佛山市",
      "area": "南海区",
      "lng": 113.135339,
      "lat": 23.057708,
      "uid": "9e7f2a16d2acde26eddfca93",
      "tag": "旅游景点;文物古迹",
      "type": "scope",
      "overall_rating": "0",
      "comment_num": "1",
      "source": "baidu_api",
      "search_town": "桂城街道",
      "search_keyword": "古迹"
    },
    {
      "name": "李氏祖祠",
      "address": "佛山市南海区江南名居西南侧约190米",
      "province": "广东省",
      "city": "佛山市",
      "area": "南海区",
      "lng": 113.138067,
      "lat": 23.067153,
      "uid": "952d789678ffb0359a0050de",
      "tag": "旅游景点;文物古迹",
      "type": "scope",
      "overall_rating": "",
      "comment_num": "",
      "source": "baidu_api",
      "search_town": "桂城街道",
      "search_keyword": "古迹"
    },
    {
      "name": "桓庚李公祠",
      "address": "佛山市南海区叠北谭头村北约749号",
      "province": "广东省",
      "city": "佛山市",
      "area": "南海区",
      "lng": 113.138345,
      "lat": 23.065787,
      "uid": "f4d692eda03d9622ce04ef9f",
      "tag": "旅游景点;文物古迹",
      "type": "scope",
      "overall_rating": "0.0",
      "comment_num": "",
      "source": "baidu_api",
      "search_town": "桂城街道",
      "search_keyword": "古迹"
    },
    {
      "name": "陇西世胄",
      "address": "广东省佛山市南海区天佑六路138-174号南约93号",
      "province": "广东省",
      "city": "佛山市",
      "area": "南海区",
      "lng": 113.154677,
      "lat": 23.042748,
      "uid": "e9f1ceae4bb62ce536b06cac",
      "tag": "旅游景点;文物古迹",
      "type": "scope",
      "overall_rating": "",
      "comment_num": "",
      "source": "baidu_api",
      "search_town": "桂城街道",
      "search_keyword": "古迹"
    },
    {
      "name": "南园",
      "address": "佛山市南海区东大街与天佑六路交叉路口西北侧",
      "province": "广东省",
      "city": "佛山市",
      "area": "南海区",
      "lng": 113.153958,
      "lat": 23.041491,
      "uid": "4f29fe43f6956023a5da3989",
      "tag": "旅游景点;公园",
      "type": "scope",
      "overall_rating": "",
      "comment_num": "",
      "source": "baidu_api",
      "search_town": "桂城街道",
      "search_keyword": "公园"
    },
    {
      "name": "关爱公园",
      "address": "佛山市南海区桂平西路与华翠南路交汇处西北侧",
      "province": "广东省",
      "city": "佛山市",
      "area": "南海区",
      "lng": 113.169978,
      "lat": 23.039099,
      "uid": "8965f4392803e5a704fef54c",
      "tag": "旅游景点;公园",
      "type": "scope",
      "overall_rating": "5.0",
      "comment_num": "1",
      "source": "baidu_api",
      "search_town": "桂城街道",
      "search_keyword": "公园"
    },
    {
      "name": "清溪公园",
      "address": "广东省佛山市南海区三洲村大道与石龙北路交叉口西150米",
      "province": "广东省",
      "city": "佛山市",
      "area": "南海区",
      "lng": 113.191953,
      "lat": 23.053624,
      "uid": "6fddd7fde7e1e37f3417dcb2",
      "tag": "旅游景点;公园",
      "type": "scope",
      "overall_rating": "0",
      "comment_num": "1",
      "source": "baidu_api",
      "search_town": "桂城街道",
      "search_keyword": "公园"
    },
    {
      "name": "佛平公园",
      "address": "广东省佛山市南海区桂城街道南海大道北62号9铺",
      "province": "广东省",
      "city": "佛山市",
      "area": "南海区",
      "lng": 113.146028,
      "lat": 23.043828,
      "uid": "f194e6f0697172bf00ec01af",
      "tag": "旅游景点;公园",
      "type": "scope",
      "overall_rating": "4.0",
      "comment_num": "",
      "source": "baidu_api",
      "search_town": "桂城街道",
      "search_keyword": "公园"
    },
    {
      "name": "南海活水公园-湿地公园",
      "address": "广东省佛山市南海区佛平二路礌岗公园",
      "province": "广东省",
      "city": "佛山市",
      "area": "南海区",
      "lng": 113.160914,
      "lat": 23.052725,
      "uid": "fead204c4ef96e4b0aa8d4b0",
      "tag": "旅游景点;公园",
      "type": "scope",
      "overall_rating": "",
      "comment_num": "",
      "source": "baidu_api",
      "search_town": "桂城街道",
      "search_keyword": "公园"
    },
    {
      "name": "平胜汇江公园",
      "address": "佛山市南海区江元一路平胜幼儿园东侧约240米",
      "province": "广东省",
      "city": "佛山市",
      "area": "南海区",
      "lng": 113.186115,
      "lat": 23.005947,
      "uid": "4da0cde57f0e018888f15dc4",
      "tag": "旅游景点;公园",
      "type": "scope",
      "overall_rating": "",
      "comment_num": "",
      "source": "baidu_api",
      "search_town": "桂城街道",
      "search_keyword": "公园"
    },
    {
      "name": "三村中心公园",
      "address": "佛山市南海区南涌大道与直涌路交叉路口往西北约210米",
      "province": "广东省",
      "city": "佛山市",
      "area": "南海区",
      "lng": 113.162668,
      "lat": 23.008641,
      "uid": "42778a6f066f00bd3913fdd3",
      "tag": "旅游景点;公园",
      "type": "scope",
      "overall_rating": "0",
      "comment_num": "0",
      "source": "baidu_api",
      "search_town": "桂城街道",
      "search_keyword": "公园"
    },
    {
      "name": "宝翠涌公园",
      "address": "佛山市南海区清风西路丽致尚筑西南侧约200米",
      "province": "广东省",
      "city": "佛山市",
      "area": "南海区",
      "lng": 113.166223,
      "lat": 23.060307,
      "uid": "bf1858b10a7860db78f796fe",
      "tag": "旅游景点;公园",
      "type": "scope",
      "overall_rating": "",
      "comment_num": "",
      "source": "baidu_api",
      "search_town": "桂城街道",
      "search_keyword": "公园"
    },
    {
      "name": "涌口公园(裕达酒店西南)",
      "address": "广东省佛山市南海区桂城街道石龙北路涌口村公园二排7号驿收发",
      "province": "广东省",
      "city": "佛山市",
      "area": "南海区",
      "lng": 113.191134,
      "lat": 23.055908,
      "uid": "7fe6b1f8d4b3e571eb56fa07",
      "tag": "旅游景点;公园",
      "type": "scope",
      "overall_rating": "",
      "comment_num": "",
      "source": "baidu_api",
      "search_town": "桂城街道",
      "search_keyword": "公园"
    },
    {
      "name": "桂城街道交通安全主题公园",
      "address": "南海大道与佛平二路交界",
      "province": "广东省",
      "city": "佛山市",
      "area": "南海区",
      "lng": 113.1462,
      "lat": 23.043713,
      "uid": "bb37f5b98088d4db8936eeb3",
      "tag": "旅游景点;公园",
      "type": "scope",
      "overall_rating": "",
      "comment_num": "",
      "source": "baidu_api",
      "search_town": "桂城街道",
      "search_keyword": "公园"
    },
    {
      "name": "佛山市南海区桂城街道平胜社区西龙湿地公园",
      "address": "佛山市南海区广佛江珠高速龙湾足球公园西北侧约90米",
      "province": "广东省",
      "city": "佛山市",
      "area": "南海区",
      "lng": 113.17698,
      "lat": 23.002205,
      "uid": "3a75d56605d97d7240024536",
      "tag": "旅游景点;公园",
      "type": "scope",
      "overall_rating": "",
      "comment_num": "",
      "source": "baidu_api",
      "search_town": "桂城街道",
      "search_keyword": "公园"
    },
    {
      "name": "平西社区公园",
      "address": "广东省佛山市南海区平洲东平路平西小学",
      "province": "广东省",
      "city": "佛山市",
      "area": "南海区",
      "lng": 113.195387,
      "lat": 23.026044,
      "uid": "e77e273e0617c9dbd23ce330",
      "tag": "旅游景点;公园",
      "type": "scope",
      "overall_rating": "",
      "comment_num": "",
      "source": "baidu_api",
      "search_town": "桂城街道",
      "search_keyword": "公园"
    },
    {
      "name": "溪悦公园",
      "address": "佛山市南海区夏平路紫金城商务中心东侧约150米",
      "province": "广东省",
      "city": "佛山市",
      "area": "南海区",
      "lng": 113.179365,
      "lat": 23.048786,
      "uid": "0f97e40ba794d6efe31103ae",
      "tag": "旅游景点;公园",
      "type": "scope",
      "overall_rating": "1.0",
      "comment_num": "1",
      "source": "baidu_api",
      "search_town": "桂城街道",
      "search_keyword": "公园"
    },
    {
      "name": "宝索活力公园",
      "address": "广东省佛山市南海区万科·金御华府(桂平路南)",
      "province": "广东省",
      "city": "佛山市",
      "area": "南海区",
      "lng": 113.166986,
      "lat": 23.038515,
      "uid": "e34bee555af5932b41d63e8f",
      "tag": "旅游景点;公园",
      "type": "scope",
      "overall_rating": "",
      "comment_num": "",
      "source": "baidu_api",
      "search_town": "桂城街道",
      "search_keyword": "公园"
    },
    {
      "name": "环溪村林泉公",
      "address": "广东省佛山市南海区环溪村仁后里",
      "province": "广东省",
      "city": "佛山市",
      "area": "南海区",
      "lng": 113.182445,
      "lat": 23.053409,
      "uid": "08054d442dc13149b24c4920",
      "tag": "旅游景点;公园",
      "type": "scope",
      "overall_rating": "",
      "comment_num": "",
      "source": "baidu_api",
      "search_town": "桂城街道",
      "search_keyword": "公园"
    },
    {
      "name": "兴业路桥Park",
      "address": "广东省佛山市南海区S267(南海大道北)",
      "province": "广东省",
      "city": "佛山市",
      "area": "南海区",
      "lng": 113.146937,
      "lat": 23.070382,
      "uid": "755feb95ed583d8db6147fb4",
      "tag": "旅游景点;公园",
      "type": "scope",
      "overall_rating": "",
      "comment_num": "",
      "source": "baidu_api",
      "search_town": "桂城街道",
      "search_keyword": "公园"
    },
    {
      "name": "大德社区活动公园",
      "address": "佛山市南海区桂城街道卫生和人口计划生育局附近",
      "province": "广东省",
      "city": "佛山市",
      "area": "南海区",
      "lng": 113.201873,
      "lat": 23.040141,
      "uid": "5b50c66cc4b4a9a775e5b632",
      "tag": "旅游景点;公园",
      "type": "scope",
      "overall_rating": "",
      "comment_num": "",
      "source": "baidu_api",
      "search_town": "桂城街道",
      "search_keyword": "公园"
    },
    {
      "name": "叠滘小学-体育公园",
      "address": "佛山市南海区叠滘大道与叠滘路交叉路口往东南约170米",
      "province": "广东省",
      "city": "佛山市",
      "area": "南海区",
      "lng": 113.136582,
      "lat": 23.062678,
      "uid": "e6ee2fd27e9914482a11d1b2",
      "tag": "旅游景点;公园",
      "type": "scope",
      "overall_rating": "0",
      "comment_num": "1",
      "source": "baidu_api",
      "search_town": "桂城街道",
      "search_keyword": "公园"
    },
    {
      "name": "智科AI人工智能主题公园",
      "address": "佛山市南海区南海大道北中国太平洋财产保险股份有限公司(华南运营中心)",
      "province": "广东省",
      "city": "佛山市",
      "area": "南海区",
      "lng": 113.145738,
      "lat": 23.06232,
      "uid": "d668f35717e459d6adcb660c",
      "tag": "旅游景点;公园",
      "type": "scope",
      "overall_rating": "",
      "comment_num": "",
      "source": "baidu_api",
      "search_town": "桂城街道",
      "search_keyword": "公园"
    },
    {
      "name": "康悦公园",
      "address": "佛山市南海区佛平四路映月湖环宇城西北侧约70米",
      "province": "广东省",
      "city": "佛山市",
      "area": "南海区",
      "lng": 113.193496,
      "lat": 23.040584,
      "uid": "c6b5db030f9cc5303586f423",
      "tag": "旅游景点;公园",
      "type": "scope",
      "overall_rating": "",
      "comment_num": "",
      "source": "baidu_api",
      "search_town": "桂城街道",
      "search_keyword": "公园"
    },
    {
      "name": "桂城街道消防宣传主题公园",
      "address": "佛山市南海区培德路南港名轩东南侧约70米",
      "province": "广东省",
      "city": "佛山市",
      "area": "南海区",
      "lng": 113.202182,
      "lat": 23.039959,
      "uid": "e2163e875caa237b018972eb",
      "tag": "旅游景点;公园",
      "type": "scope",
      "overall_rating": "",
      "comment_num": "",
      "source": "baidu_api",
      "search_town": "桂城街道",
      "search_keyword": "公园"
    },
    {
      "name": "康盛体育公园",
      "address": "广东省佛山市南海区桂城街道X507(半岛路)",
      "province": "广东省",
      "city": "佛山市",
      "area": "南海区",
      "lng": 113.17151,
      "lat": 23.004712,
      "uid": "29043a5c67afd6f38a36eecc",
      "tag": "旅游景点;公园",
      "type": "life",
      "overall_rating": "",
      "comment_num": "",
      "source": "baidu_api",
      "search_town": "桂城街道",
      "search_keyword": "公园"
    },
    {
      "name": "桂城志愿服务公园",
      "address": "佛山市南海区良平路依云天汇-南区西南侧",
      "province": "广东省",
      "city": "佛山市",
      "area": "南海区",
      "lng": 113.164647,
      "lat": 23.051805,
      "uid": "4d47a99afebb7eb235b06c28",
      "tag": "旅游景点;公园",
      "type": "scope",
      "overall_rating": "",
      "comment_num": "",
      "source": "baidu_api",
      "search_town": "桂城街道",
      "search_keyword": "公园"
    },
    {
      "name": "桂雅公园",
      "address": "佛山市南海区南一路62号桂江二中侧",
      "province": "广东省",
      "city": "佛山市",
      "area": "南海区",
      "lng": 113.144007,
      "lat": 23.058827,
      "uid": "37423d0a46e4beb4843304a4",
      "tag": "旅游景点;公园",
      "type": "scope",
      "overall_rating": "0.0",
      "comment_num": "",
      "source": "baidu_api",
      "search_town": "桂城街道",
      "search_keyword": "公园"
    },
    {
      "name": "南海区法治公园",
      "address": "佛山市南海区海五路南海区人民法院",
      "province": "广东省",
      "city": "佛山市",
      "area": "南海区",
      "lng": 113.148895,
      "lat": 23.061957,
      "uid": "6f3c8688c2009dc7593ac8f6",
      "tag": "旅游景点;公园",
      "type": "scope",
      "overall_rating": "",
      "comment_num": "",
      "source": "baidu_api",
      "search_town": "桂城街道",
      "search_keyword": "公园"
    },
    {
      "name": "千灯湖公园-紧急求助",
      "address": "佛山市南海区桂城街道灯湖西路千灯湖公园",
      "province": "广东省",
      "city": "佛山市",
      "area": "南海区",
      "lng": 113.154752,
      "lat": 23.075115,
      "uid": "eef2021be6ef33b7c71e51f1",
      "tag": "旅游景点;公园",
      "type": "scope",
      "overall_rating": "",
      "comment_num": "",
      "source": "baidu_api",
      "search_town": "桂城街道",
      "search_keyword": "公园"
    },
    {
      "name": "桂城文化中心",
      "address": "广东省佛山市南海区天佑六路2号",
      "province": "广东省",
      "city": "佛山市",
      "area": "南海区",
      "lng": 113.155147,
      "lat": 23.030491,
      "uid": "b7021bf8fd6f3bfaf4e73b5a",
      "tag": "文化传媒;文化宫",
      "type": "enterprise",
      "overall_rating": "",
      "comment_num": "1",
      "source": "baidu_api",
      "search_town": "桂城街道",
      "search_keyword": "文化"
    },
    {
      "name": "南海文化馆",
      "address": "广东省佛山市南海区桂城街道南新一路6号1座",
      "province": "广东省",
      "city": "佛山市",
      "area": "南海区",
      "lng": 113.15258,
      "lat": 23.028242,
      "uid": "bf29b702bcb2949909b93a5a",
      "tag": "文化传媒;文化宫",
      "type": "enterprise",
      "overall_rating": "4.0",
      "comment_num": "2",
      "source": "baidu_api",
      "search_town": "桂城街道",
      "search_keyword": "文化"
    },
    {
      "name": "南湖文化公园-健身广场",
      "address": "广东省佛山市南海区南新一路6号",
      "province": "广东省",
      "city": "佛山市",
      "area": "南海区",
      "lng": 113.151455,
      "lat": 23.029326,
      "uid": "dfc8243354ecb509e11103d0",
      "tag": "休闲娱乐;休闲广场",
      "type": "life",
      "overall_rating": "",
      "comment_num": "",
      "source": "baidu_api",
      "search_town": "桂城街道",
      "search_keyword": "文化"
    },
    {
      "name": "佛山市有嘀文化传播有限公司",
      "address": "广东省佛山市南海区育才路2号",
      "province": "广东省",
      "city": "佛山市",
      "area": "南海区",
      "lng": 113.155538,
      "lat": 23.02945,
      "uid": "783c8564f06ef3f89c09f7da",
      "tag": "公司企业;公司",
      "type": "enterprise",
      "overall_rating": "",
      "comment_num": "",
      "source": "baidu_api",
      "search_town": "桂城街道",
      "search_keyword": "文化"
    },
    {
      "name": "南海文化公园-西北门",
      "address": "佛山市南海区南新一路6号",
      "province": "广东省",
      "city": "佛山市",
      "area": "南海区",
      "lng": 113.151596,
      "lat": 23.029874,
      "uid": "ef1c76a636576c4db35c6a8b",
      "tag": "出入口;门",
      "type": "life",
      "overall_rating": "",
      "comment_num": "",
      "source": "baidu_api",
      "search_town": "桂城街道",
      "search_keyword": "文化"
    },
    {
      "name": "佛山千椿文化传播有限公司",
      "address": "广东省佛山市南海区育才路2号",
      "province": "广东省",
      "city": "佛山市",
      "area": "南海区",
      "lng": 113.155594,
      "lat": 23.029535,
      "uid": "0df96a9866bee752213bf23a",
      "tag": "公司企业",
      "type": "enterprise",
      "overall_rating": "",
      "comment_num": "",
      "source": "baidu_api",
      "search_town": "桂城街道",
      "search_keyword": "文化"
    },
    {
      "name": "佛山市南海区文化广电旅游体育局",
      "address": "广东省佛山市南海区天佑五路1号",
      "province": "广东省",
      "city": "佛山市",
      "area": "南海区",
      "lng": 113.152816,
      "lat": 23.035193,
      "uid": "3c4c43edf2e9159afbf0cb73",
      "tag": "政府机构;行政单位",
      "type": "life",
      "overall_rating": "",
      "comment_num": "",
      "source": "baidu_api",
      "search_town": "桂城街道",
      "search_keyword": "文化"
    },
    {
      "name": "南海文化馆-地上停车场",
      "address": "广东省佛山市南海区南新一路6号",
      "province": "广东省",
      "city": "佛山市",
      "area": "南海区",
      "lng": 113.152965,
      "lat": 23.028218,
      "uid": "ec5c14f24eb3d5a52bfc4841",
      "tag": "交通设施;停车场",
      "type": "life",
      "overall_rating": "",
      "comment_num": "",
      "source": "baidu_api",
      "search_town": "桂城街道",
      "search_keyword": "文化"
    },
    {
      "name": "南海区文化馆艺术展厅",
      "address": "佛山市南海区南新一路桂华街2号南海文化馆",
      "province": "广东省",
      "city": "佛山市",
      "area": "南海区",
      "lng": 113.152859,
      "lat": 23.02938,
      "uid": "010a3ba4d19770cee5073846",
      "tag": "文化传媒;展览馆",
      "type": "enterprise",
      "overall_rating": "",
      "comment_num": "",
      "source": "baidu_api",
      "search_town": "桂城街道",
      "search_keyword": "文化"
    },
    {
      "name": "文化公园三拱桥",
      "address": "广东省佛山市南海区",
      "province": "广东省",
      "city": "佛山市",
      "area": "南海区",
      "lng": 113.151987,
      "lat": 23.029008,
      "uid": "d5a50548a87161f27f29bda0",
      "tag": "道路",
      "type": "",
      "overall_rating": "",
      "comment_num": "",
      "source": "baidu_api",
      "search_town": "桂城街道",
      "search_keyword": "文化"
    },
    {
      "name": "南海文化公园站",
      "address": "桂01路",
      "province": "广东省",
      "city": "佛山市",
      "area": "南海区",
      "lng": 113.152957,
      "lat": 23.030476,
      "uid": "2f50eb9d976b9ee2aaf0cd6e",
      "tag": "交通设施;公交车站",
      "type": "",
      "overall_rating": "",
      "comment_num": "",
      "source": "baidu_api",
      "search_town": "桂城街道",
      "search_keyword": "文化"
    },
    {
      "name": "佛山市一品文化传播策划有限公司",
      "address": "广东省佛山市南海区南海大道北92-7号",
      "province": "广东省",
      "city": "佛山市",
      "area": "南海区",
      "lng": 113.14977,
      "lat": 23.032365,
      "uid": "dbf59f070216aff80c0a70aa",
      "tag": "公司企业;公司",
      "type": "enterprise",
      "overall_rating": "",
      "comment_num": "",
      "source": "baidu_api",
      "search_town": "桂城街道",
      "search_keyword": "文化"
    },
    {
      "name": "南湖文化公园-大舞台",
      "address": "佛山市南海区南新一路6号南海文化公园",
      "province": "广东省",
      "city": "佛山市",
      "area": "南海区",
      "lng": 113.152403,
      "lat": 23.029308,
      "uid": "ce29c841b1a184d9ebe58225",
      "tag": "休闲娱乐;剧院",
      "type": "life",
      "overall_rating": "",
      "comment_num": "",
      "source": "baidu_api",
      "search_town": "桂城街道",
      "search_keyword": "文化"
    },
    {
      "name": "南海文化公园-东门",
      "address": "佛山市南海区桂城街道天佑四路南海文化公园旁",
      "province": "广东省",
      "city": "佛山市",
      "area": "南海区",
      "lng": 113.153056,
      "lat": 23.028432,
      "uid": "c4879f93938847f030621298",
      "tag": "出入口;门",
      "type": "life",
      "overall_rating": "",
      "comment_num": "",
      "source": "baidu_api",
      "search_town": "桂城街道",
      "search_keyword": "文化"
    },
    {
      "name": "佛山市文化广电旅游体育局南海综合执法支队",
      "address": "佛山市南海区天佑五路1号",
      "province": "广东省",
      "city": "佛山市",
      "area": "南海区",
      "lng": 113.152812,
      "lat": 23.035197,
      "uid": "868f49cb6bf2e9faa5da3975",
      "tag": "政府机构;行政单位",
      "type": "life",
      "overall_rating": "",
      "comment_num": "",
      "source": "baidu_api",
      "search_town": "桂城街道",
      "search_keyword": "文化"
    },
    {
      "name": "南海文化公园-公共厕所",
      "address": "佛山市南海区长堤东路美豪邨东南侧约150米",
      "province": "广东省",
      "city": "佛山市",
      "area": "南海区",
      "lng": 113.151181,
      "lat": 23.02945,
      "uid": "2fb1369b54ffebe83913fd43",
      "tag": "生活服务;公共厕所",
      "type": "life",
      "overall_rating": "",
      "comment_num": "",
      "source": "baidu_api",
      "search_town": "桂城街道",
      "search_keyword": "文化"
    },
    {
      "name": "南海区文化市场管理工作领导小组办公室(天佑三路)",
      "address": "广东省佛山市南海区天佑五路1号",
      "province": "广东省",
      "city": "佛山市",
      "area": "南海区",
      "lng": 113.152987,
      "lat": 23.035217,
      "uid": "9e1dcff77bc5f3fdc27da2a1",
      "tag": "政府机构;行政单位",
      "type": "life",
      "overall_rating": "",
      "comment_num": "",
      "source": "baidu_api",
      "search_town": "桂城街道",
      "search_keyword": "文化"
    },
    {
      "name": "佛山市三希堂文化传媒有限公司",
      "address": "佛山市南海区桂城南桂东路17号邮政局大楼13楼之八",
      "province": "广东省",
      "city": "佛山市",
      "area": "南海区",
      "lng": 113.149366,
      "lat": 23.038842,
      "uid": "abb364511e30cfe9e9f8538c",
      "tag": "文化传媒",
      "type": "enterprise",
      "overall_rating": "",
      "comment_num": "",
      "source": "baidu_api",
      "search_town": "桂城街道",
      "search_keyword": "文化"
    },
    {
      "name": "南海文化公园-休息亭",
      "address": "佛山市南海区南新一路6号南海文化公园",
      "province": "广东省",
      "city": "佛山市",
      "area": "南海区",
      "lng": 113.152275,
      "lat": 23.028545,
      "uid": "756400682924caade31103e5",
      "tag": "生活服务",
      "type": "life",
      "overall_rating": "",
      "comment_num": "",
      "source": "baidu_api",
      "search_town": "桂城街道",
      "search_keyword": "文化"
    },
    {
      "name": "东二文化活动中心停车场-出入口",
      "address": "佛山市南海区长堤路桂城艾薇幼儿园东北侧约80米",
      "province": "广东省",
      "city": "佛山市",
      "area": "南海区",
      "lng": 113.160494,
      "lat": 23.030738,
      "uid": "f942c2be2a5702c4774ff1c2",
      "tag": "出入口;停车场出入口",
      "type": "life",
      "overall_rating": "",
      "comment_num": "",
      "source": "baidu_api",
      "search_town": "桂城街道",
      "search_keyword": "文化"
    },
    {
      "name": "南海文化公园-休息区",
      "address": "佛山市南海区南新一路6号南海文化公园",
      "province": "广东省",
      "city": "佛山市",
      "area": "南海区",
      "lng": 113.152365,
      "lat": 23.029744,
      "uid": "fe97e369a239d07b6849f314",
      "tag": "生活服务",
      "type": "life",
      "overall_rating": "",
      "comment_num": "",
      "source": "baidu_api",
      "search_town": "桂城街道",
      "search_keyword": "文化"
    },
    {
      "name": "东二文化活动中心华濠羽毛球俱乐部",
      "address": "桂城南新一路东二文化活动中心3层",
      "province": "广东省",
      "city": "佛山市",
      "area": "南海区",
      "lng": 113.1607,
      "lat": 23.031661,
      "uid": "5ad92116ca50d36a8d772713",
      "tag": "运动健身;体育场馆",
      "type": "life",
      "overall_rating": "3.3",
      "comment_num": "5",
      "source": "baidu_api",
      "search_town": "桂城街道",
      "search_keyword": "文化"
    },
    {
      "name": "黠黠仙美文化艺术培训",
      "address": "广东省佛山市南海区东平路宏基花园b座东二区2楼",
      "province": "广东省",
      "city": "佛山市",
      "area": "南海区",
      "lng": 113.163361,
      "lat": 23.033964,
      "uid": "b762e1155738c580cae33c3a",
      "tag": "教育培训;培训机构",
      "type": "education",
      "overall_rating": "0",
      "comment_num": "1",
      "source": "baidu_api",
      "search_town": "桂城街道",
      "search_keyword": "文化"
    },
    {
      "name": "文化公园小岛曲桥",
      "address": "广东省佛山市南海区",
      "province": "广东省",
      "city": "佛山市",
      "area": "南海区",
      "lng": 113.152081,
      "lat": 23.028496,
      "uid": "6c4c07a86ef8036b32f71da3",
      "tag": "道路",
      "type": "",
      "overall_rating": "",
      "comment_num": "",
      "source": "baidu_api",
      "search_town": "桂城街道",
      "search_keyword": "文化"
    },
    {
      "name": "东二文化活动中心-停车场",
      "address": "佛山市南海区长堤路桂城艾薇幼儿园东侧约60米",
      "province": "广东省",
      "city": "佛山市",
      "area": "南海区",
      "lng": 113.160882,
      "lat": 23.030855,
      "uid": "5c39800ef92a45f735b06c9a",
      "tag": "交通设施;停车场",
      "type": "life",
      "overall_rating": "",
      "comment_num": "",
      "source": "baidu_api",
      "search_town": "桂城街道",
      "search_keyword": "文化"
    },
    {
      "name": "东二文化活动中心停车场-出入口",
      "address": "广东省佛山市南海区长堤东路与南新一路交叉口北80米",
      "province": "广东省",
      "city": "佛山市",
      "area": "南海区",
      "lng": 113.161077,
      "lat": 23.031247,
      "uid": "817878bbe13cca47cc06a4b4",
      "tag": "出入口;停车场出入口",
      "type": "life",
      "overall_rating": "",
      "comment_num": "",
      "source": "baidu_api",
      "search_town": "桂城街道",
      "search_keyword": "文化"
    },
    {
      "name": "南海文化公园-公共厕所",
      "address": "佛山市南海区天佑四路南海文化公园",
      "province": "广东省",
      "city": "佛山市",
      "area": "南海区",
      "lng": 113.152921,
      "lat": 23.029287,
      "uid": "2cfea049ce9bf7ec2cb9087a",
      "tag": "生活服务;公共厕所",
      "type": "life",
      "overall_rating": "",
      "comment_num": "",
      "source": "baidu_api",
      "search_town": "桂城街道",
      "search_keyword": "文化"
    },
    {
      "name": "佛山市造物气球文化传播有限公司",
      "address": "广东省佛山市南海区南新五路20号之一首层之2铺",
      "province": "广东省",
      "city": "佛山市",
      "area": "南海区",
      "lng": 113.146353,
      "lat": 23.040626,
      "uid": "c69584d5cab857a849fc8d21",
      "tag": "公司企业;公司",
      "type": "enterprise",
      "overall_rating": "",
      "comment_num": "",
      "source": "baidu_api",
      "search_town": "桂城街道",
      "search_keyword": "文化"
    },
    {
      "name": "桂二社区综合性文化服务中心",
      "address": "广东省佛山市南海区桂城街道越秀星汇云锦商业中心A区2座旁M层",
      "province": "广东省",
      "city": "佛山市",
      "area": "南海区",
      "lng": 113.147552,
      "lat": 23.036428,
      "uid": "f334ddf26a06b669843304e0",
      "tag": "休闲娱乐;其他",
      "type": "life",
      "overall_rating": "",
      "comment_num": "1",
      "source": "baidu_api",
      "search_town": "桂城街道",
      "search_keyword": "文化"
    },
    {
      "name": "南海区桂城花苑社区居委会文化驿站",
      "address": "广东省佛山市南海区南兴大街1号",
      "province": "广东省",
      "city": "佛山市",
      "area": "南海区",
      "lng": 113.158913,
      "lat": 23.03754,
      "uid": "fec87f6c695275e1f6c59ccc",
      "tag": "政府机构",
      "type": "life",
      "overall_rating": "",
      "comment_num": "",
      "source": "baidu_api",
      "search_town": "桂城街道",
      "search_keyword": "文化"
    },
    {
      "name": "佛山市揽海文化发展有限公司",
      "address": "广东省佛山市南海区桂城街道丽日世纪金鼎",
      "province": "广东省",
      "city": "佛山市",
      "area": "南海区",
      "lng": 113.162517,
      "lat": 23.020452,
      "uid": "d3efb3d7d5fae4eaf942b21f",
      "tag": "公司企业;公司",
      "type": "enterprise",
      "overall_rating": "0",
      "comment_num": "1",
      "source": "baidu_api",
      "search_town": "桂城街道",
      "search_keyword": "文化"
    },
    {
      "name": "良溪文化室",
      "address": "佛山市南海区书院地塘4号",
      "province": "广东省",
      "city": "佛山市",
      "area": "南海区",
      "lng": 113.173279,
      "lat": 23.057632,
      "uid": "9d56d3e90e8a5e2b4e554732",
      "tag": "文化传媒;文化宫",
      "type": "enterprise",
      "overall_rating": "0.0",
      "comment_num": "",
      "source": "baidu_api",
      "search_town": "桂城街道",
      "search_keyword": "文化"
    },
    {
      "name": "广东乐麦文化传播有限公司",
      "address": "佛山市南海区天佑北路佛山市桂城技工学校",
      "province": "广东省",
      "city": "佛山市",
      "area": "南海区",
      "lng": 113.148428,
      "lat": 23.041484,
      "uid": "2239d7fe51439b14aecb6639",
      "tag": "公司企业;公司",
      "type": "enterprise",
      "overall_rating": "",
      "comment_num": "",
      "source": "baidu_api",
      "search_town": "桂城街道",
      "search_keyword": "文化"
    },
    {
      "name": "南海区文化市场综合执法队",
      "address": "佛山市南海区南新四路2号",
      "province": "广东省",
      "city": "佛山市",
      "area": "南海区",
      "lng": 113.147435,
      "lat": 23.035771,
      "uid": "bd5de1a2d43b6196c0364408",
      "tag": "政府机构;行政单位",
      "type": "life",
      "overall_rating": "",
      "comment_num": "",
      "source": "baidu_api",
      "search_town": "桂城街道",
      "search_keyword": "文化"
    },
    {
      "name": "罗东文化室",
      "address": "广东省佛山市南海区上教大街12号",
      "province": "广东省",
      "city": "佛山市",
      "area": "南海区",
      "lng": 113.175829,
      "lat": 23.055907,
      "uid": "c576c1fd5622e2d02ce67b72",
      "tag": "文化传媒;文化宫",
      "type": "enterprise",
      "overall_rating": "0",
      "comment_num": "1",
      "source": "baidu_api",
      "search_town": "桂城街道",
      "search_keyword": "文化"
    },
    {
      "name": "佛山市龙滔文化传播有限公司",
      "address": "广东省佛山市南海区牡丹村一街3号2幢二楼",
      "province": "广东省",
      "city": "佛山市",
      "area": "南海区",
      "lng": 113.145084,
      "lat": 23.041299,
      "uid": "148afab2edd7bd2788f15df7",
      "tag": "公司企业;公司",
      "type": "enterprise",
      "overall_rating": "5.0",
      "comment_num": "1",
      "source": "baidu_api",
      "search_town": "桂城街道",
      "search_keyword": "文化"
    },
    {
      "name": "福庆村文化室",
      "address": "广东省佛山市南海区桂城西约福庆村249号",
      "province": "广东省",
      "city": "佛山市",
      "area": "南海区",
      "lng": 113.15055,
      "lat": 23.048307,
      "uid": "ad198941b769a6522fb90850",
      "tag": "休闲娱乐;其他",
      "type": "life",
      "overall_rating": "",
      "comment_num": "",
      "source": "baidu_api",
      "search_town": "桂城街道",
      "search_keyword": "文化"
    },
    {
      "name": "佛山大任文化传播有限公司",
      "address": "佛山市南海区桂城天佑三路13号1座第三层303室之一",
      "province": "广东省",
      "city": "佛山市",
      "area": "南海区",
      "lng": 113.146311,
      "lat": 23.037656,
      "uid": "b19a5f6d8015a536f33cbaa1",
      "tag": "公司企业;公司",
      "type": "enterprise",
      "overall_rating": "",
      "comment_num": "",
      "source": "baidu_api",
      "search_town": "桂城街道",
      "search_keyword": "文化"
    },
    {
      "name": "聚龙北文化中心",
      "address": "佛山市南海区聚龙北北二",
      "province": "广东省",
      "city": "佛山市",
      "area": "南海区",
      "lng": 113.173539,
      "lat": 23.071192,
      "uid": "d47eb40d9967dd1d8ab98894",
      "tag": "文化传媒;文化宫",
      "type": "enterprise",
      "overall_rating": "0",
      "comment_num": "3",
      "source": "baidu_api",
      "search_town": "桂城街道",
      "search_keyword": "文化"
    },
    {
      "name": "创越时代文化创意园-3栋",
      "address": "佛山市南海区夏南路61号",
      "province": "广东省",
      "city": "佛山市",
      "area": "南海区",
      "lng": 113.183288,
      "lat": 23.042699,
      "uid": "7c6b14b551a37e1e4e776ea9",
      "tag": "公司企业;园区",
      "type": "enterprise",
      "overall_rating": "3.3",
      "comment_num": "4",
      "source": "baidu_api",
      "search_town": "桂城街道",
      "search_keyword": "文化"
    },
    {
      "name": "创越时代文化创意园",
      "address": "广东省佛山市南海区夏南路61号",
      "province": "广东省",
      "city": "佛山市",
      "area": "南海区",
      "lng": 113.182943,
      "lat": 23.042639,
      "uid": "06e7f9891319156bc17da213",
      "tag": "公司企业;园区",
      "type": "enterprise",
      "overall_rating": "5.0",
      "comment_num": "4",
      "source": "baidu_api",
      "search_town": "桂城街道",
      "search_keyword": "文化"
    },
    {
      "name": "创越时代文化创意园-东门",
      "address": "佛山市南海区佛平三路与夏南路交叉口北100米",
      "province": "广东省",
      "city": "佛山市",
      "area": "南海区",
      "lng": 113.183529,
      "lat": 23.041928,
      "uid": "b84548cf7d226d4421f0178a",
      "tag": "出入口;门",
      "type": "life",
      "overall_rating": "",
      "comment_num": "",
      "source": "baidu_api",
      "search_town": "桂城街道",
      "search_keyword": "文化"
    },
    {
      "name": "创越时代文化创意园-4栋",
      "address": "广东省佛山市南海区创越时代文化创意园4栋(佛平路北)",
      "province": "广东省",
      "city": "佛山市",
      "area": "南海区",
      "lng": 113.182637,
      "lat": 23.04304,
      "uid": "341e634a57fa17fdadcb6638",
      "tag": "房地产;内部楼栋",
      "type": "house",
      "overall_rating": "4.0",
      "comment_num": "",
      "source": "baidu_api",
      "search_town": "桂城街道",
      "search_keyword": "文化"
    },
    {
      "name": "乐怡海创大厦",
      "address": "佛山市南海区庆怡路7号",
      "province": "广东省",
      "city": "佛山市",
      "area": "南海区",
      "lng": 113.175839,
      "lat": 23.026249,
      "uid": "c3dd52d6496fcfdc4151c0c2",
      "tag": "房地产;写字楼",
      "type": "house",
      "overall_rating": "0",
      "comment_num": "",
      "source": "baidu_api",
      "search_town": "桂城街道",
      "search_keyword": "文化"
    },
    {
      "name": "草堂书画(怡翠玫瑰园校区)",
      "address": "广东省佛山市南海区桂城街道季华七路2号-29-31楼-p105铺",
      "province": "广东省",
      "city": "佛山市",
      "area": "南海区",
      "lng": 113.151623,
      "lat": 23.014947,
      "uid": "991289382c0cb5d558f6beff",
      "tag": "教育培训;培训机构",
      "type": "education",
      "overall_rating": "5.0",
      "comment_num": "3",
      "source": "baidu_api",
      "search_town": "桂城街道",
      "search_keyword": "文化"
    },
    {
      "name": "文华大厦(文华北路)",
      "address": "佛山市南海区桂城叠南茶基新村111号",
      "province": "广东省",
      "city": "佛山市",
      "area": "南海区",
      "lng": 113.131565,
      "lat": 23.060409,
      "uid": "18c448755fc395d9616858d0",
      "tag": "房地产;写字楼",
      "type": "house",
      "overall_rating": "3.5",
      "comment_num": "",
      "source": "baidu_api",
      "search_town": "桂城街道",
      "search_keyword": "文化"
    },
    {
      "name": "昆山梁公祠",
      "address": "广东省佛山市南海区桂城街道夏南二大道21号",
      "province": "广东省",
      "city": "佛山市",
      "area": "南海区",
      "lng": 113.187149,
      "lat": 23.059399,
      "uid": "98f59465df76c977626858ec",
      "tag": "旅游景点;博物馆",
      "type": "scope",
      "overall_rating": "",
      "comment_num": "",
      "source": "baidu_api",
      "search_town": "桂城街道",
      "search_keyword": "纪念馆"
    },
    {
      "name": "吟唱塔",
      "address": "佛山市南海区灯湖西路南海千灯湖公园内",
      "province": "广东省",
      "city": "佛山市",
      "area": "南海区",
      "lng": 113.154664,
      "lat": 23.060983,
      "uid": "770d88a95377b655f4eafc51",
      "tag": "旅游景点",
      "type": "scope",
      "overall_rating": "5.0",
      "comment_num": "1",
      "source": "baidu_api",
      "search_town": "桂城街道",
      "search_keyword": "塔"
    },
    {
      "name": "知识塔",
      "address": "佛山市南海区灯湖西路南海千灯湖公园内",
      "province": "广东省",
      "city": "佛山市",
      "area": "南海区",
      "lng": 113.152702,
      "lat": 23.061083,
      "uid": "d9a79527690c40ad1894c69a",
      "tag": "旅游景点",
      "type": "scope",
      "overall_rating": "5.0",
      "comment_num": "2",
      "source": "baidu_api",
      "search_town": "桂城街道",
      "search_keyword": "塔"
    },
    {
      "name": "千灯湖-花塔",
      "address": "佛山市南海区灯湖西路南海千灯湖公园内",
      "province": "广东省",
      "city": "佛山市",
      "area": "南海区",
      "lng": 113.152509,
      "lat": 23.054081,
      "uid": "a00601d35add9649d13ce3e5",
      "tag": "旅游景点;其他",
      "type": "scope",
      "overall_rating": "",
      "comment_num": "",
      "source": "baidu_api",
      "search_town": "桂城街道",
      "search_keyword": "塔"
    },
    {
      "name": "拉普塔儿童成长空间",
      "address": "佛山市南海区东平路德鸿·文汇创意园",
      "province": "广东省",
      "city": "佛山市",
      "area": "南海区",
      "lng": 113.172085,
      "lat": 23.032109,
      "uid": "b010f5d6049024f528b97ca7",
      "tag": "休闲娱乐;游戏场所",
      "type": "scope",
      "overall_rating": "",
      "comment_num": "",
      "source": "baidu_api",
      "search_town": "桂城街道",
      "search_keyword": "塔"
    },
    {
      "name": "新庙",
      "address": "佛山市怡海路怡海公园北十一门东南侧约60米",
      "province": "广东省",
      "city": "佛山市",
      "area": "南海区",
      "lng": 113.173408,
      "lat": 23.024003,
      "uid": "b533ea4aa298dd424f6d464c",
      "tag": "行政地标",
      "type": "life",
      "overall_rating": "",
      "comment_num": "",
      "source": "baidu_api",
      "search_town": "桂城街道",
      "search_keyword": "庙"
    },
    {
      "name": "乐宝托儿所(庙前街)",
      "address": "广东省佛山市南海区庙前街张巷95号",
      "province": "广东省",
      "city": "佛山市",
      "area": "南海区",
      "lng": 113.167175,
      "lat": 23.014346,
      "uid": "55371a0c419fe9b14151c09c",
      "tag": "教育培训;幼儿园",
      "type": "education",
      "overall_rating": "3.5",
      "comment_num": "2",
      "source": "baidu_api",
      "search_town": "桂城街道",
      "search_keyword": "庙"
    },
    {
      "name": "凯得书院",
      "address": "广东省佛山市南海区德鸿文汇创意园文德巷B17号",
      "province": "广东省",
      "city": "佛山市",
      "area": "南海区",
      "lng": 113.172236,
      "lat": 23.03213,
      "uid": "1a671d121970b90601294f79",
      "tag": "教育培训;培训机构",
      "type": "education",
      "overall_rating": "",
      "comment_num": "",
      "source": "baidu_api",
      "search_town": "桂城街道",
      "search_keyword": "书院"
    },
    {
      "name": "颐水禅国学书院",
      "address": "广东省佛山市南海区桂城南约幼儿园西北(天佑六路北)",
      "province": "广东省",
      "city": "佛山市",
      "area": "南海区",
      "lng": 113.153676,
      "lat": 23.041833,
      "uid": "cd43aaacd3c00d8f2cb908e4",
      "tag": "教育培训",
      "type": "education",
      "overall_rating": "",
      "comment_num": "",
      "source": "baidu_api",
      "search_town": "桂城街道",
      "search_keyword": "书院"
    },
    {
      "name": "儒能书院",
      "address": "佛山市南海区南三路京信国际大厦西侧约30米",
      "province": "广东省",
      "city": "佛山市",
      "area": "南海区",
      "lng": 113.145305,
      "lat": 23.044495,
      "uid": "b54e7c66df94399e1df74d66",
      "tag": "教育培训;培训机构",
      "type": "education",
      "overall_rating": "",
      "comment_num": "",
      "source": "baidu_api",
      "search_town": "桂城街道",
      "search_keyword": "书院"
    },
    {
      "name": "谦谦书院(佳盛国际广场店)",
      "address": "佛山市南海区桂城街道华翠南路6号佳盛国际广场F1",
      "province": "广东省",
      "city": "佛山市",
      "area": "南海区",
      "lng": 113.171863,
      "lat": 23.039491,
      "uid": "2007c4ecaf01f239f32d83ba",
      "tag": "教育培训;培训机构",
      "type": "education",
      "overall_rating": "",
      "comment_num": "",
      "source": "baidu_api",
      "search_town": "桂城街道",
      "search_keyword": "书院"
    },
    {
      "name": "江南书院桂江校区",
      "address": "广东省佛山市南海区海七路兴业新村兴雅苑32号铺",
      "province": "广东省",
      "city": "佛山市",
      "area": "南海区",
      "lng": 113.142919,
      "lat": 23.069182,
      "uid": "1990153e01b1a9d008ccdd58",
      "tag": "教育培训;培训机构",
      "type": "education",
      "overall_rating": "",
      "comment_num": "",
      "source": "baidu_api",
      "search_town": "桂城街道",
      "search_keyword": "书院"
    },
    {
      "name": "智德书院",
      "address": "佛山市南海区庆安路南舜·金百福都市广场",
      "province": "广东省",
      "city": "佛山市",
      "area": "南海区",
      "lng": 113.177367,
      "lat": 23.030578,
      "uid": "004ff80a7bc82bcd72210bb7",
      "tag": "教育培训;培训机构",
      "type": "education",
      "overall_rating": "",
      "comment_num": "",
      "source": "baidu_api",
      "search_town": "桂城街道",
      "search_keyword": "书院"
    },
    {
      "name": "河北书院",
      "address": "广东省佛山市南海区永宝大道7号",
      "province": "广东省",
      "city": "佛山市",
      "area": "南海区",
      "lng": 113.17302,
      "lat": 23.067864,
      "uid": "a5da22763997b9d86c3e1bf0",
      "tag": "教育培训",
      "type": "education",
      "overall_rating": "4.0",
      "comment_num": "2",
      "source": "baidu_api",
      "search_town": "桂城街道",
      "search_keyword": "书院"
    },
    {
      "name": "随墨书院",
      "address": "广东省佛山市南海区北便坊二路8号",
      "province": "广东省",
      "city": "佛山市",
      "area": "南海区",
      "lng": 113.183869,
      "lat": 23.004873,
      "uid": "cb3004dba238f3f5b65f1e78",
      "tag": "教育培训;培训机构",
      "type": "education",
      "overall_rating": "5.0",
      "comment_num": "1",
      "source": "baidu_api",
      "search_town": "桂城街道",
      "search_keyword": "书院"
    },
    {
      "name": "汉和书院",
      "address": "广东佛山市南海区南海大道北8号125铺",
      "province": "广东省",
      "city": "佛山市",
      "area": "南海区",
      "lng": 113.148425,
      "lat": 23.065281,
      "uid": "93f2d3dcd878ed74a5da3974",
      "tag": "教育培训;培训机构",
      "type": "education",
      "overall_rating": "",
      "comment_num": "",
      "source": "baidu_api",
      "search_town": "桂城街道",
      "search_keyword": "书院"
    },
    {
      "name": "春华书院",
      "address": "佛山市南海区佛平五路鸿晖康怡丽苑",
      "province": "广东省",
      "city": "佛山市",
      "area": "南海区",
      "lng": 113.200421,
      "lat": 23.036211,
      "uid": "b3733a5c411bd3754e776e58",
      "tag": "教育培训",
      "type": "education",
      "overall_rating": "",
      "comment_num": "",
      "source": "baidu_api",
      "search_town": "桂城街道",
      "search_keyword": "书院"
    },
    {
      "name": "乐怡美术馆",
      "address": "广东省佛山市南海区桂城街道简平路乐怡海创大厦首层101之二",
      "province": "广东省",
      "city": "佛山市",
      "area": "南海区",
      "lng": 113.17549,
      "lat": 23.026751,
      "uid": "4d5c819e2b3f721a744ff1e1",
      "tag": "文化传媒;美术馆",
      "type": "enterprise",
      "overall_rating": "",
      "comment_num": "",
      "source": "baidu_api",
      "search_town": "桂城街道",
      "search_keyword": "艺术馆"
    },
    {
      "name": "萌缘儿童成长馆",
      "address": "广东省佛山市南海区育才路2号-7号",
      "province": "广东省",
      "city": "佛山市",
      "area": "南海区",
      "lng": 113.155643,
      "lat": 23.02934,
      "uid": "1c461163754756998bb988d2",
      "tag": "教育培训;培训机构",
      "type": "education",
      "overall_rating": "",
      "comment_num": "",
      "source": "baidu_api",
      "search_town": "桂城街道",
      "search_keyword": "艺术馆"
    },
    {
      "name": "几多趣美术馆(怡海港店)",
      "address": "广东省佛山市南海区简平路7号益田假日天地一座三楼302铺",
      "province": "广东省",
      "city": "佛山市",
      "area": "南海区",
      "lng": 113.173849,
      "lat": 23.029969,
      "uid": "f020e42bd42ba311c9fa5f03",
      "tag": "教育培训;培训机构",
      "type": "education",
      "overall_rating": "",
      "comment_num": "",
      "source": "baidu_api",
      "search_town": "桂城街道",
      "search_keyword": "艺术馆"
    },
    {
      "name": "传统南狮文化艺术馆",
      "address": "佛山市南海区怡海路南海壹品美食广场",
      "province": "广东省",
      "city": "佛山市",
      "area": "南海区",
      "lng": 113.167297,
      "lat": 23.026502,
      "uid": "cf5d39eeb4abfc5463180947",
      "tag": "文化传媒;其他",
      "type": "enterprise",
      "overall_rating": "",
      "comment_num": "",
      "source": "baidu_api",
      "search_town": "桂城街道",
      "search_keyword": "艺术馆"
    },
    {
      "name": "华天鹤美术馆",
      "address": "广东省佛山市南海区桂城街道夏南一社区环溪村轩奇里1号之三",
      "province": "广东省",
      "city": "佛山市",
      "area": "南海区",
      "lng": 113.181093,
      "lat": 23.052966,
      "uid": "7a0ad54658a664555d17c304",
      "tag": "文化传媒;美术馆",
      "type": "enterprise",
      "overall_rating": "",
      "comment_num": "",
      "source": "baidu_api",
      "search_town": "桂城街道",
      "search_keyword": "艺术馆"
    },
    {
      "name": "雨田书画馆(丹桂苑店)",
      "address": "广东省佛山市南海区桂城街道南新五路17号丹桂苑A座首层",
      "province": "广东省",
      "city": "佛山市",
      "area": "南海区",
      "lng": 113.144291,
      "lat": 23.040598,
      "uid": "7152edecdd2f000f102935ef",
      "tag": "教育培训;培训机构",
      "type": "education",
      "overall_rating": "0",
      "comment_num": "0",
      "source": "baidu_api",
      "search_town": "桂城街道",
      "search_keyword": "艺术馆"
    },
    {
      "name": "无界艺术馆",
      "address": "广东省佛山市南海区桂澜中路18号(近地铁礌岗站B出口)千灯湖环宇城F2",
      "province": "广东省",
      "city": "佛山市",
      "area": "南海区",
      "lng": 113.164161,
      "lat": 23.049791,
      "uid": "94521e5e229a1685a8f72964",
      "tag": "文化传媒;其他",
      "type": "enterprise",
      "overall_rating": "4.0",
      "comment_num": "",
      "source": "baidu_api",
      "search_town": "桂城街道",
      "search_keyword": "艺术馆"
    },
    {
      "name": "童奥艺术馆(怡翠世嘉分店)",
      "address": "佛山市南海区桂城街道桂澜南路45号怡翠世嘉花园8座02号商铺",
      "province": "广东省",
      "city": "佛山市",
      "area": "南海区",
      "lng": 113.158383,
      "lat": 23.015836,
      "uid": "af1248ac9dda1ee5cac3dbc9",
      "tag": "教育培训;培训机构",
      "type": "education",
      "overall_rating": "",
      "comment_num": "",
      "source": "baidu_api",
      "search_town": "桂城街道",
      "search_keyword": "艺术馆"
    },
    {
      "name": "红树林艺术馆",
      "address": "广东省佛山市南海区桂城街道南一路76号宏宇景裕豪园18栋负一楼01号",
      "province": "广东省",
      "city": "佛山市",
      "area": "南海区",
      "lng": 113.142608,
      "lat": 23.071977,
      "uid": "a4f4b380ecee7052d5851f77",
      "tag": "教育培训;培训机构",
      "type": "education",
      "overall_rating": "0",
      "comment_num": "0",
      "source": "baidu_api",
      "search_town": "桂城街道",
      "search_keyword": "艺术馆"
    },
    {
      "name": "77cnLLERY原创艺术衍生收藏馆",
      "address": "广东省佛山市南海区桂城街道雷岗社区桂澜中路23号南海万科广场F1",
      "province": "广东省",
      "city": "佛山市",
      "area": "南海区",
      "lng": 113.160747,
      "lat": 23.043357,
      "uid": "87dc3bad9333150c43ab9aa0",
      "tag": "文化传媒;展览馆",
      "type": "enterprise",
      "overall_rating": "",
      "comment_num": "",
      "source": "baidu_api",
      "search_town": "桂城街道",
      "search_keyword": "艺术馆"
    },
    {
      "name": "黄志伟艺术馆·DIY玩陶艺(中建广场店)",
      "address": "南海大道北8号中建广场4楼4F-03铺",
      "province": "广东省",
      "city": "佛山市",
      "area": "南海区",
      "lng": 113.147109,
      "lat": 23.068451,
      "uid": "7e0a11af7bc2f993adb22afb",
      "tag": "休闲娱乐;其他",
      "type": "life",
      "overall_rating": "",
      "comment_num": "",
      "source": "baidu_api",
      "search_town": "桂城街道",
      "search_keyword": "艺术馆"
    },
    {
      "name": "画画鸭艺术创作馆",
      "address": "广东省佛山市南海区宝翠北路中海寰宇天下花园5座112铺",
      "province": "广东省",
      "city": "佛山市",
      "area": "南海区",
      "lng": 113.165556,
      "lat": 23.049648,
      "uid": "82f86cc16bdffe852fb96de7",
      "tag": "休闲娱乐;其他",
      "type": "life",
      "overall_rating": "",
      "comment_num": "",
      "source": "baidu_api",
      "search_town": "桂城街道",
      "search_keyword": "艺术馆"
    },
    {
      "name": "童乐嘉美学馆(海七路店)",
      "address": "广东省佛山市南海区海七路8号铺",
      "province": "广东省",
      "city": "佛山市",
      "area": "南海区",
      "lng": 113.144077,
      "lat": 23.069184,
      "uid": "4b364cf116b00ba800ec01d5",
      "tag": "教育培训;培训机构",
      "type": "education",
      "overall_rating": "4",
      "comment_num": "2",
      "source": "baidu_api",
      "search_town": "桂城街道",
      "search_keyword": "艺术馆"
    },
    {
      "name": "艺想美学馆",
      "address": "广东省佛山市南海区南一路39号",
      "province": "广东省",
      "city": "佛山市",
      "area": "南海区",
      "lng": 113.141621,
      "lat": 23.068644,
      "uid": "18619245c76e6c118f1a896b",
      "tag": "教育培训;培训机构",
      "type": "education",
      "overall_rating": "5.0",
      "comment_num": "1",
      "source": "baidu_api",
      "search_town": "桂城街道",
      "search_keyword": "艺术馆"
    },
    {
      "name": "千美术创意馆(保利水城购物中心店)",
      "address": "灯湖东路20号保利水城购物中心F2层",
      "province": "广东省",
      "city": "佛山市",
      "area": "南海区",
      "lng": 113.155067,
      "lat": 23.066686,
      "uid": "f8a8cce9b1d358adaecb6655",
      "tag": "教育培训;培训机构",
      "type": "education",
      "overall_rating": "4.2",
      "comment_num": "2",
      "source": "baidu_api",
      "search_town": "桂城街道",
      "search_keyword": "艺术馆"
    },
    {
      "name": "卓跃儿童运动馆(IPARK花园城店)",
      "address": "桂澜北路26号IPARK花园城购物中心3楼022号",
      "province": "广东省",
      "city": "佛山市",
      "area": "南海区",
      "lng": 113.163236,
      "lat": 23.068343,
      "uid": "f771a6da032375a27369d300",
      "tag": "教育培训;培训机构",
      "type": "education",
      "overall_rating": "3.9",
      "comment_num": "2",
      "source": "baidu_api",
      "search_town": "桂城街道",
      "search_keyword": "艺术馆"
    },
    {
      "name": "嘉欣照相馆",
      "address": "广东省佛山市南海区西约大街25号b区",
      "province": "广东省",
      "city": "佛山市",
      "area": "南海区",
      "lng": 113.166473,
      "lat": 23.03127,
      "uid": "b3a6ecf6036c5f136f3e1b09",
      "tag": "生活服务;照相馆",
      "type": "life",
      "overall_rating": "3.8",
      "comment_num": "5",
      "source": "baidu_api",
      "search_town": "桂城街道",
      "search_keyword": "艺术馆"
    },
    {
      "name": "海马体照相馆(佛山南海万达广场店)",
      "address": "桂澜北路28号南海万达广场二楼2065号(麦当劳斜对面尽头)",
      "province": "广东省",
      "city": "佛山市",
      "area": "南海区",
      "lng": 113.162903,
      "lat": 23.069535,
      "uid": "93c24ffa18be12aae0110301",
      "tag": "生活服务;照相馆",
      "type": "life",
      "overall_rating": "4.8",
      "comment_num": "3",
      "source": "baidu_api",
      "search_town": "桂城街道",
      "search_keyword": "艺术馆"
    },
    {
      "name": "贰壹八烘焙教学体验馆&Flour bakery studio",
      "address": "季华东路顺联公园里北座2楼L5-201铺(丝域养发馆旁)（丝域养发馆旁边）",
      "province": "广东省",
      "city": "佛山市",
      "area": "南海区",
      "lng": 113.170857,
      "lat": 23.020007,
      "uid": "e98db79689fcfa11cbfa5f4e",
      "tag": "教育培训;培训机构",
      "type": "education",
      "overall_rating": "5.0",
      "comment_num": "2",
      "source": "baidu_api",
      "search_town": "桂城街道",
      "search_keyword": "艺术馆"
    },
    {
      "name": "嘉极少儿体适能嘉极空手道(南海体育馆校区)",
      "address": "广东省佛山市南海区南海大道北36号南海体育馆二楼",
      "province": "广东省",
      "city": "佛山市",
      "area": "南海区",
      "lng": 113.147113,
      "lat": 23.053722,
      "uid": "a16cc29f592dd9927ab55c9e",
      "tag": "教育培训;培训机构",
      "type": "education",
      "overall_rating": "3.5",
      "comment_num": "2",
      "source": "baidu_api",
      "search_town": "桂城街道",
      "search_keyword": "艺术馆"
    },
    {
      "name": "东福棋馆",
      "address": "广东省佛山市南海区桂城街道东平路豪门公寓(中心大街店)东侧",
      "province": "广东省",
      "city": "佛山市",
      "area": "南海区",
      "lng": 113.166209,
      "lat": 23.033506,
      "uid": "73fc50cbec82a0d5b52655a6",
      "tag": "教育培训;培训机构",
      "type": "education",
      "overall_rating": "",
      "comment_num": "",
      "source": "baidu_api",
      "search_town": "桂城街道",
      "search_keyword": "艺术馆"
    },
    {
      "name": "与萌美学馆",
      "address": "宝翠北路中海万锦东苑商业4栋1层78号商铺",
      "province": "广东省",
      "city": "佛山市",
      "area": "南海区",
      "lng": 113.166865,
      "lat": 23.046607,
      "uid": "cedd160f9924c87730169b51",
      "tag": "教育培训;培训机构",
      "type": "education",
      "overall_rating": "",
      "comment_num": "1",
      "source": "baidu_api",
      "search_town": "桂城街道",
      "search_keyword": "艺术馆"
    },
    {
      "name": "超能星球智能运动馆·体能·篮球(南海景裕豪园店)",
      "address": "广东省佛山市南海区海七路1号宏宇景裕豪园销售中心北一楼103-106号",
      "province": "广东省",
      "city": "佛山市",
      "area": "南海区",
      "lng": 113.145671,
      "lat": 23.069988,
      "uid": "a71a1cb5b4b342c3f13cba93",
      "tag": "运动健身",
      "type": "life",
      "overall_rating": "",
      "comment_num": "",
      "source": "baidu_api",
      "search_town": "桂城街道",
      "search_keyword": "艺术馆"
    },
    {
      "name": "EVAMOW写真摄影私人定制馆(A32万科里店)",
      "address": "东瑞路6号二十五座",
      "province": "广东省",
      "city": "佛山市",
      "area": "南海区",
      "lng": 113.170315,
      "lat": 23.072474,
      "uid": "571d36dc1319c9ae0c0e6bcc",
      "tag": "生活服务;照相馆",
      "type": "life",
      "overall_rating": "4.5",
      "comment_num": "",
      "source": "baidu_api",
      "search_town": "桂城街道",
      "search_keyword": "艺术馆"
    },
    {
      "name": "南海风物方志馆",
      "address": "广东省佛山市南海区佛平二路礌岗公园魁星阁",
      "province": "广东省",
      "city": "佛山市",
      "area": "南海区",
      "lng": 113.152747,
      "lat": 23.046783,
      "uid": "54e57f77449d7e0a5ed4fe4e",
      "tag": "文化传媒;展览馆",
      "type": "enterprise",
      "overall_rating": "",
      "comment_num": "",
      "source": "baidu_api",
      "search_town": "桂城街道",
      "search_keyword": "展览馆"
    },
    {
      "name": "佛山市南海区图片档案展览室",
      "address": "广东省佛山市南海区天佑四路56号",
      "province": "广东省",
      "city": "佛山市",
      "area": "南海区",
      "lng": 113.152358,
      "lat": 23.035058,
      "uid": "2caca21fa091210ed12dd664",
      "tag": "文化传媒;展览馆",
      "type": "enterprise",
      "overall_rating": "0.0",
      "comment_num": "",
      "source": "baidu_api",
      "search_town": "桂城街道",
      "search_keyword": "展览馆"
    },
    {
      "name": "活水展览馆",
      "address": "佛山市南海区佛平二路礌岗公园",
      "province": "广东省",
      "city": "佛山市",
      "area": "南海区",
      "lng": 113.159593,
      "lat": 23.052029,
      "uid": "db687e6146408d049e9d684c",
      "tag": "文化传媒;展览馆",
      "type": "enterprise",
      "overall_rating": "",
      "comment_num": "",
      "source": "baidu_api",
      "search_town": "桂城街道",
      "search_keyword": "展览馆"
    },
    {
      "name": "博览馆",
      "address": "佛平二路75号家天下·家居广场",
      "province": "广东省",
      "city": "佛山市",
      "area": "南海区",
      "lng": 113.160797,
      "lat": 23.046835,
      "uid": "8010f4e5c5f1e5fe9868b471",
      "tag": "文化传媒;展览馆",
      "type": "enterprise",
      "overall_rating": "",
      "comment_num": "",
      "source": "baidu_api",
      "search_town": "桂城街道",
      "search_keyword": "展览馆"
    },
    {
      "name": "江头村史馆",
      "address": "佛山市南海区江头村路叠滘小学东侧约130米",
      "province": "广东省",
      "city": "佛山市",
      "area": "南海区",
      "lng": 113.139519,
      "lat": 23.062611,
      "uid": "3a77628a5674096bf2193725",
      "tag": "文化传媒;展览馆",
      "type": "scope",
      "overall_rating": "",
      "comment_num": "",
      "source": "baidu_api",
      "search_town": "桂城街道",
      "search_keyword": "展览馆"
    },
    {
      "name": "佳盛国际广场-展厅",
      "address": "佛山市南海区桂城街道华翠南路6号佳盛国际广场F1",
      "province": "广东省",
      "city": "佛山市",
      "area": "南海区",
      "lng": 113.171627,
      "lat": 23.039632,
      "uid": "ae11fecc435975acf60e776e",
      "tag": "文化传媒;展览馆",
      "type": "enterprise",
      "overall_rating": "",
      "comment_num": "",
      "source": "baidu_api",
      "search_town": "桂城街道",
      "search_keyword": "展览馆"
    },
    {
      "name": "广东省中西医结合医院院史馆",
      "address": "佛山市南海区南五路佛山市南海区中医院",
      "province": "广东省",
      "city": "佛山市",
      "area": "南海区",
      "lng": 113.148636,
      "lat": 23.052774,
      "uid": "2899bee7cc8c50780d3ddaca",
      "tag": "文化传媒;展览馆",
      "type": "enterprise",
      "overall_rating": "",
      "comment_num": "",
      "source": "baidu_api",
      "search_town": "桂城街道",
      "search_keyword": "展览馆"
    },
    {
      "name": "南海区安全技术体验馆",
      "address": "广东省佛山市南海区深海路与东平路交叉路口往北约100米",
      "province": "广东省",
      "city": "佛山市",
      "area": "南海区",
      "lng": 113.184262,
      "lat": 23.031484,
      "uid": "d4dae2a61c24a6167adbd282",
      "tag": "文化传媒;展览馆",
      "type": "enterprise",
      "overall_rating": "5.0",
      "comment_num": "3",
      "source": "baidu_api",
      "search_town": "桂城街道",
      "search_keyword": "展览馆"
    },
    {
      "name": "珠三角工匠精神展示馆·佛山洛客城市设计中心",
      "address": "佛山市南海区海八东路佛山南海金融公园",
      "province": "广东省",
      "city": "佛山市",
      "area": "南海区",
      "lng": 113.163711,
      "lat": 23.073661,
      "uid": "bd0aa34557e06738b1077d00",
      "tag": "文化传媒;展览馆",
      "type": "enterprise",
      "overall_rating": "",
      "comment_num": "",
      "source": "baidu_api",
      "search_town": "桂城街道",
      "search_keyword": "展览馆"
    },
    {
      "name": "珠三角工匠精神展示馆志高智能云体验馆",
      "address": "佛山市南海区S113(海八东路)佛山品牌制造文化街区",
      "province": "广东省",
      "city": "佛山市",
      "area": "南海区",
      "lng": 113.16426,
      "lat": 23.073664,
      "uid": "04883e7ecc14d34ac356accc",
      "tag": "文化传媒;展览馆",
      "type": "enterprise",
      "overall_rating": "",
      "comment_num": "",
      "source": "baidu_api",
      "search_town": "桂城街道",
      "search_keyword": "展览馆"
    },
    {
      "name": "规划公示栏",
      "address": "佛山市南海区天佑四路十一街区东侧约30米",
      "province": "广东省",
      "city": "佛山市",
      "area": "南海区",
      "lng": 113.152673,
      "lat": 23.032358,
      "uid": "b12bd0076512736d1df74d17",
      "tag": "文化传媒;展览馆",
      "type": "enterprise",
      "overall_rating": "",
      "comment_num": "",
      "source": "baidu_api",
      "search_town": "桂城街道",
      "search_keyword": "展览馆"
    },
    {
      "name": "国家环境服务业华南集聚区展示中心",
      "address": "佛山市南海区深海路17号瀚天科技城A区8号楼1层101-2号",
      "province": "广东省",
      "city": "佛山市",
      "area": "南海区",
      "lng": 113.182387,
      "lat": 23.034641,
      "uid": "c7200ba85483c8dbbadf8ffa",
      "tag": "文化传媒;展览馆",
      "type": "enterprise",
      "overall_rating": "",
      "comment_num": "",
      "source": "baidu_api",
      "search_town": "桂城街道",
      "search_keyword": "展览馆"
    },
    {
      "name": "UNI知趣科普馆(映月湖环宇城店)",
      "address": "广东省佛山市南海区石龙南路6号映月湖环宇城B1",
      "province": "广东省",
      "city": "佛山市",
      "area": "南海区",
      "lng": 113.194875,
      "lat": 23.03912,
      "uid": "657006d6f4b9d126eee4a538",
      "tag": "文化传媒;展览馆",
      "type": "enterprise",
      "overall_rating": "",
      "comment_num": "",
      "source": "baidu_api",
      "search_town": "桂城街道",
      "search_keyword": "展览馆"
    },
    {
      "name": "广东千古情景区",
      "address": "佛山市南海区西樵镇樵高路86号",
      "province": "广东省",
      "city": "佛山市",
      "area": "南海区",
      "lng": 112.961979,
      "lat": 22.948486,
      "uid": "51fde3a7f18b997ee9f85334",
      "tag": "旅游景点",
      "type": "scope",
      "overall_rating": "4.7",
      "comment_num": "143",
      "source": "baidu_api",
      "search_town": "西樵镇",
      "search_keyword": "景点"
    },
    {
      "name": "高家文化楼",
      "address": "广东省佛山市南海区贵斌路与顺祥路交叉口西北方向90米",
      "province": "广东省",
      "city": "佛山市",
      "area": "南海区",
      "lng": 112.972074,
      "lat": 22.972946,
      "uid": "ec7033e41038ad8e25d2bb8a",
      "tag": "旅游景点;文物古迹",
      "type": "scope",
      "overall_rating": "5.0",
      "comment_num": "1",
      "source": "baidu_api",
      "search_town": "西樵镇",
      "search_keyword": "景点"
    },
    {
      "name": "亦有亭",
      "address": "佛山市南海区西樵镇山南路西樵山风景名胜区内",
      "province": "广东省",
      "city": "佛山市",
      "area": "南海区",
      "lng": 112.980529,
      "lat": 22.935361,
      "uid": "0ebfb2e89b03e7e059bbbc5f",
      "tag": "旅游景点",
      "type": "scope",
      "overall_rating": "5.0",
      "comment_num": "1",
      "source": "baidu_api",
      "search_town": "西樵镇",
      "search_keyword": "景点"
    },
    {
      "name": "崇德公园",
      "address": "广东省佛山市南海区碧霞一路与樵金中路交汇处东北侧",
      "province": "广东省",
      "city": "佛山市",
      "area": "南海区",
      "lng": 112.988818,
      "lat": 22.968317,
      "uid": "613fd67b7949aacc6d20b962",
      "tag": "旅游景点;公园",
      "type": "scope",
      "overall_rating": "5.0",
      "comment_num": "2",
      "source": "baidu_api",
      "search_town": "西樵镇",
      "search_keyword": "景点"
    },
    {
      "name": "观音古庙",
      "address": "佛山市南海区西樵镇崇南窦头村",
      "province": "广东省",
      "city": "佛山市",
      "area": "南海区",
      "lng": 112.994656,
      "lat": 22.970363,
      "uid": "df80a7f277cddb3c4e5547b8",
      "tag": "旅游景点;寺庙",
      "type": "scope",
      "overall_rating": "5.0",
      "comment_num": "2",
      "source": "baidu_api",
      "search_town": "西樵镇",
      "search_keyword": "景点"
    },